title,place_id,rating,reviews,price,type,ZonaSP,address,latitude,longitude,open_state,description,thumbnail,sunday,monday,tuesday,wednesday,thursday,friday,saturday,inicio,fim,aberto_dia_util(%),aberto_final_de_semana(%),madrugada,manha,tarde,noite,inicio_periodo,fim_periodo,dine_in,takeout,delivery,drive_through,Cluster
Sagrado Almoço,ChIJU008MZNTzpQRpjpsv33pRQs,4.6,14.0,5,restaurant,Sul,"Estr. do Campo Limpo, 992 - Vila Prel, São Paulo - SP, 05777-000, Brazil",-23.6479188,-46.7629977,Open ⋅ Closes 8 pm,,https://lh5.googleusercontent.com/p/AF1QipO1TL8Y7GTmMvJcKhKQ6CurqS-e3rX_Hahd0_Ur=w94-h92-k-no,0,1,1,1,1,1,1,8.0,20.0,100.0,66.7,0.0,66.0,100.0,17.0,manha,noite,1,1,0,0,4.0
2 L's Restaurante E Bar Almoço-Lanches,ChIJU4W1hWVezpQRb7UZOCXHQNk,4.6,17.0,5,restaurant,Leste,"Rua Coronel Marques, 399 - Vila Nova Manchester, São Paulo - SP, 03440-005, Brazil",-23.5430909,-46.5455258,Opens soon ⋅ 11:30 am,,https://streetviewpixels-pa.googleapis.com/v1/thumbnail?panoid=exMCb-aws31uCxbWtmOCQQ&cb_client=search.gws-prod.gps&w=80&h=92&yaw=347.15842&pitch=0&thumbfov=100,0,1,1,1,1,1,1,11.5,14.5,100.0,66.7,0.0,7.0,36.0,0.0,manha,tarde,1,1,1,0,5.0
Brasiliano Restaurante,ChIJhbffCo6KxZQREb1Ryt2u80Y,4.5,881.0,0,buffet restaurant,Outro,"Av. Prof. Arthur Fonseca, 841 - Jardim Faculdade, Sorocaba - SP, 18031-005, Brazil",-23.515907,-47.463541,Open ⋅ Closes 2:30 pm,,https://lh5.googleusercontent.com/p/AF1QipP11RNUDzapnoOD7W4rPtDr6Ygu4pZgXm6va_ZK=w122-h92-k-no,0,1,1,1,1,1,1,11.0,14.5,100.0,66.7,0.0,15.0,36.0,0.0,manha,tarde,1,1,0,0,0.0
Sirva-se Almoço,ChIJzfUSXO74zpQRhxWMHFXJ9-8,4.5,201.0,5,buffet restaurant,Oeste,"R. Conselheiro Ribas, 330 - Vila Anastácio, São Paulo - SP, 05093-060, Brazil",-23.5147015,-46.7207434,Closed ⋅ Opens 11 am Mon,,https://lh5.googleusercontent.com/p/AF1QipOzyqcWTgJ6m_01D9yfuXcEPpBKYJJTNB81xQUR=w122-h92-k-no,0,1,1,1,1,1,0,11.0,15.0,100.0,33.3,0.0,15.0,43.0,0.0,manha,tarde,1,1,1,0,1.0
Speed Almoço,ChIJR5o7uexWzpQR4NL-w4Fybvg,4.5,26.0,5,restaurant,Oeste,"Rua Dr. SÍlvio Dante Bertacchi, 253 - Vila Sonia, São Paulo - SP, 05625-000, Brazil",-23.596165,-46.7299293,Open ⋅ Closes 10 pm,,https://lh5.googleusercontent.com/p/AF1QipMMLu2z0Jl_59Roc3PIS3mIkai-6wBA8ofz1tqh=w163-h92-k-no,0,1,1,1,1,1,1,11.0,22.0,100.0,66.7,0.0,15.0,100.0,51.0,manha,noite,1,1,0,0,11.0
Pizza Almoço Marmitex,ChIJBxcVOlP4zpQR4Li58g0VAnA,4.6,32.0,5,restaurant,Oeste,"Av. Min. Petrônio Portela, 309 - Moinho Velho, São Paulo - SP, 02959-000, Brazil",-23.496101,-46.7027375,,,https://lh5.googleusercontent.com/p/AF1QipMmQKRO3-l1zc0jZqZZiGm6SmsiHpS1sm2hoTpd=w122-h92-k-no,1,1,1,1,1,1,1,,,100.0,100.0,0.0,0.0,0.0,0.0,,,1,1,0,0,
Galpão Restaurante,ChIJk6kN2SYf35QR-o2NU-feIec,4.5,741.0,0,restaurant,Outro,"R. Dois de Setembro, 2145 - Itoupava Norte, Blumenau - SC, 89052-002, Brazil",-26.8930136,-49.0789599,Open ⋅ Closes 2 pm,,https://lh5.googleusercontent.com/p/AF1QipOZdUPNwCrQtEh8I2N7gJuD-sQ_pPgxEC3eWyHo=w80-h106-k-no,0,1,1,1,1,1,1,11.0,14.0,100.0,66.7,0.0,15.0,29.0,0.0,manha,tarde,1,1,0,0,2.0
Almoço | Comida Caseira | Marmitex | Restaurante | × [SABOR FAMÍLIA],ChIJTRMTvz_5zpQRpXznyTwMt-g,5.0,10.0,5,restaurant,Oeste,"Rua Félix Guilhem, 1415-1403 - Lapa de Baixo, São Paulo - SP, 02675-031, Brazil",-23.512486,-46.711237,Open ⋅ Closes 2 pm,,https://lh5.googleusercontent.com/p/AF1QipNbeUK_rvHJrIT6SROCSDNb4J4jB0a3qjlGF-xA=w80-h106-k-no,0,1,1,1,1,1,1,10.5,15.333333333333334,100.0,66.7,0.0,24.0,48.0,0.0,manha,tarde,1,1,0,0,15.0
Casa Do Norte Ceará Marroais Almoço E Marmitex,ChIJwQsj9dZmzpQR7ImY_hcLpQE,4.7,20.0,5,restaurant,Leste,"Cidade Antônio Estêvão de Carvalho, São Paulo - SP, 03889-000, Brazil",-23.5370676,-46.4752441,Open ⋅ Closes 12 am,,https://streetviewpixels-pa.googleapis.com/v1/thumbnail?panoid=rYaXJ5-pN_a-WFlEkIvTVQ&cb_client=search.gws-prod.gps&w=80&h=92&yaw=137.937&pitch=0&thumbfov=100,0,1,1,1,1,1,1,,,100.0,66.7,0.0,0.0,0.0,0.0,,,1,1,0,0,
Restaurante Rango Saboroso - Almoço - Marmitex - Feijoada - Cantinho Italiano - Refeição Deliciosa,ChIJFR6HJXVdzpQR3ixkvcwGslg,4.5,19.0,5,brazilian restaurant,Leste,"Av. Prof. Carini, 50 - Vila Formosa, São Paulo - SP, 03367-020, Brazil",-23.5673633,-46.5356669,Open ⋅ Closes 4 pm,,https://lh5.googleusercontent.com/p/AF1QipPPlh_7TVSzymwBwuLRbR2HiGiUUrz-ad4CI2uy=w80-h106-k-no,1,1,1,1,0,1,1,9.5,16.0,75.0,100.0,0.0,41.0,58.0,0.0,manha,tarde,1,1,0,0,11.0
Chefia Restaurante,ChIJPbtiSutCzpQR4WiIK3qiKLQ,4.6,559.0,1,buffet restaurant,Outro,"R. Alm. Protógenes, 300 - Jardim, Santo André - SP, 09090-760, Brazil",-23.6507548,-46.5356935,Open ⋅ Closes 2:30 pm,,https://lh5.googleusercontent.com/p/AF1QipNZjIeUaboNal5wcL8l5P731FDBf6lvgySqPGj5=w80-h106-k-no,0,1,1,1,1,1,1,11.0,14.5,100.0,66.7,0.0,15.0,36.0,0.0,manha,tarde,1,1,0,0,13.0
Maddie Almoço,ChIJpYC5RvtEzpQRRVefGN9er4U,4.5,357.0,1,buffet restaurant,Outro,"Av. Alda, 250 - Centro, Diadema - SP, 09910-170, Brazil",-23.6890678,-46.626255,Closed ⋅ Opens 11:30 am Mon,,https://lh5.googleusercontent.com/p/AF1QipNSvGrTSkFZ_sJ3Yb_UPS4EpqPKpY3z4fmzUFpe=w80-h142-k-no,0,1,1,1,1,1,0,11.5,14.5,100.0,33.3,0.0,7.0,36.0,0.0,manha,tarde,1,1,1,0,9.0
SIRI CASCUDO LANCHONETE / ALMOÇO,ChIJB6QJqhdjzpQROmX0U_X9lJE,4.6,30.0,0,fast food restaurant,Outro,"R. Ângelo Caldini, 201 - bairro pimentas, Guarulhos - SP, 07262-210, Brazil",-23.473293,-46.397604,Closed ⋅ Opens 12 pm,,https://lh5.googleusercontent.com/p/AF1QipPmCOSBdRiCG1xxcup1z7sptHUUTIjMyJpadVge=w122-h92-k-no,1,0,1,1,1,1,1,13.0,23.5,75.0,100.0,0.0,0.0,86.0,76.0,tarde,noite,1,1,0,0,11.0
Casinha Mineira,ChIJBZG1_cdZzpQR_7_BhnUnt0I,4.5,1218.0,1,brazilian restaurant,Centro,"R. São Carlos do Pinhal, 445 - Bela Vista, São Paulo - SP, 01333-000, Brazil",-23.5639423,-46.6517267,Closed ⋅ Opens 12 pm,"Home-style cooking in a cozy space. Traditional dishes & sides from Minas Gerais, plus juices & caipirinhas served in a rustic setting.",https://lh5.googleusercontent.com/p/AF1QipMv3DLPjoQe7KdJSvHxCgnkWIRjleuZ4izrEd9H=w137-h92-k-no,0,1,1,1,1,1,1,11.5,15.0,100.0,66.7,0.0,7.0,43.0,0.0,manha,tarde,1,1,0,0,0.0
‍ Almoço Self-Service e marmitex delivery na Vila Andrade - Restaurante Catuti,ChIJN4Ij_CBRzpQRiYKM4302AnA,4.4,65.0,5,restaurant,Sul,"R. Catuti, 125 - Vila Andrade, São Paulo - SP, 05729-120, Brazil",-23.6370954,-46.7375664,Open ⋅ Closes 3:30 pm,,https://lh5.googleusercontent.com/p/AF1QipNh9QCZBSXfnLoNCg14u52K6B63gBOj8BL9wfj2=w122-h92-k-no,1,1,1,1,1,1,1,10.5,15.5,100.0,100.0,0.0,24.0,51.0,0.0,manha,tarde,1,1,0,0,10.0
O Comilão Restaurante,ChIJgTqzJ4xbzpQRdA-bOncMYYg,4.6,295.0,0,brazilian restaurant,Sul,"R. Clemente Pereira, 558 - Ipiranga, São Paulo - SP, 04216-060, Brazil",-23.5981916,-46.5998505,Closed ⋅ Opens 11:30 am Mon,,https://lh5.googleusercontent.com/p/AF1QipNWqyOcJY5sBu4pqk83gUsB0dvLjOgDiZQTE_56=w163-h92-k-no,0,1,1,1,1,1,0,11.5,15.0,100.0,33.3,0.0,7.0,43.0,0.0,manha,tarde,1,1,0,0,8.0
R&S Pastelaria E Lanchonete Servimos Almoço,ChIJMUjhG1ZFzpQRn4MX_kSIyv8,4.5,20.0,5,restaurant,Sul,"R. David Eid, 1318 - Vila do Castelo, São Paulo - SP, 04438-000, Brazil",-23.6805972,-46.6701712,Open ⋅ Closes 6:01 am Sun,,https://lh5.googleusercontent.com/p/AF1QipP2Vu1qhzgQPTiaAZ0URJSlwE7065atGrCw_lM7=w80-h106-k-no,1,1,1,1,1,1,1,6.016666666666667,6.016666666666667,100.0,100.0,0.0,0.0,0.0,0.0,manha,manha,1,1,1,0,5.0
Restaurante,ChIJ-e59XBj4zpQRMFzTnkJHG_4,4.8,13.0,5,buffet restaurant,Norte,"R. Isabel de Siqueira Barros, 197a - Limão, São Paulo - SP, 02712-080, Brazil",-23.507678,-46.6783264,Open ⋅ Closes 2 pm,,https://streetviewpixels-pa.googleapis.com/v1/thumbnail?panoid=ZjpTncC8sPZ6EAKKrvwauw&cb_client=search.gws-prod.gps&w=80&h=92&yaw=269.00424&pitch=0&thumbfov=100,0,1,1,1,1,1,1,11.0,14.0,100.0,66.7,0.0,15.0,29.0,0.0,manha,tarde,1,0,1,0,10.0
"Espaço Da Marmita (Não fornecemos almoço, somente esquentamos marmitas)",ChIJ0RTqcFFZzpQRcZj_3Fyap0Y,4.6,34.0,0,restaurant,Centro,"R. Carlos Sampaio, 331 - 1° Andar - Bela Vista, São Paulo - SP, 01333-021, Brazil",-23.5684814,-46.6466803,Closed ⋅ Opens 11:30 am Mon,,https://lh5.googleusercontent.com/p/AF1QipOzs_sjICsR3l1_7r8H4y6dYOGNENcFIKfnOslj=w101-h92-k-no,0,1,1,1,1,1,0,11.5,14.5,100.0,33.3,0.0,7.0,36.0,0.0,manha,tarde,1,0,0,0,9.0
Sala de Almoço,ChIJX8ws5c1XzpQRjTHVEpKm0w4,4.2,326.0,1,restaurant,Oeste,"Rua Professor Túlio Ascarelli, 239 - Vila Madalena, São Paulo - SP, 05451-110, Brazil",-23.5444449,-46.704857,Open ⋅ Closes 3 pm,,https://lh5.googleusercontent.com/p/AF1QipOI9ZoYzO5eowsza0JSJjHPzDE10Pf8P2Y6DJHk=w122-h92-k-no,0,1,1,1,1,1,1,11.0,15.0,100.0,66.7,0.0,15.0,43.0,0.0,manha,tarde,1,1,1,0,14.0
Restaurante Jardim Leopoldina,ChIJn9lQq7j4zpQR0TGn2VJtbZI,4.5,1048.0,1,buffet restaurant,Oeste,"R. Mergenthaler, 41 - Vila Leopoldina, São Paulo - SP, 05311-030, Brazil",-23.525438,-46.73329,Opens soon ⋅ 11:30 AM,,https://lh5.googleusercontent.com/p/AF1QipPoB_IXffa8KvXzDLZ3VEGKGke1qkrH2_z6rtKk=w80-h106-k-no,0,1,1,1,1,1,1,11.5,15.0,100.0,66.7,0.0,7.0,43.0,0.0,manha,tarde,1,1,0,0,0.0
Restaurante Casa do Almoço,ChIJbZwKSCVczpQRZru-QWsVw0w,4.2,54.0,0,restaurant,Leste,"Rua Dr. Gabriel de Resende, 101 - Vila Diva (Zona Leste), São Paulo - SP, 03350-000, Brazil",-23.5713206,-46.5655256,Open ⋅ Closes 8 PM,,https://lh5.googleusercontent.com/p/AF1QipOK4qc2Kf7Ea4Jog0NKhLNcgWCVxt3b-macPda6=w174-h92-k-no,1,1,1,1,1,1,1,10.0,20.0,100.0,100.0,0.0,32.0,100.0,17.0,manha,noite,1,1,0,0,4.0
"Restaurante Villa Nostra, Almoço por Quilo e Pizzaria.",ChIJMbprTSD2zpQRrvfjwoKDOug,4.2,2488.0,1,buffet restaurant,Norte,"Av. Gen. Ataliba Leonel, 1531 - Santana, São Paulo - SP, 02068-040, Brazil",-23.5007275,-46.6145002,Opens soon ⋅ 11:30 AM,,https://lh5.googleusercontent.com/p/AF1QipON_l-A2mC-FcIL1dauekBGIxUE0to_H_cc4muy=w122-h92-k-no,1,1,1,1,1,1,1,11.5,23.5,100.0,100.0,0.0,7.0,100.0,76.0,manha,noite,1,1,0,0,8.0
Rlpm Almoço,ChIJnStRD_9hzpQRdtkReGnmBz8,4.5,10.0,5,restaurant,Outro,"R. Caracaru, 773 - Jardim Cumbica, Guarulhos - SP, 07240-110, Brazil",-23.4458026,-46.4410883,Open ⋅ Closes 1:30 PM,,https://streetviewpixels-pa.googleapis.com/v1/thumbnail?panoid=UyaRDpsgViTZsupw_oGX8w&cb_client=search.gws-prod.gps&w=80&h=92&yaw=336.75607&pitch=0&thumbfov=100,0,1,1,1,1,1,1,7.0,14.5,100.0,66.7,0.0,83.0,36.0,0.0,manha,tarde,1,0,0,0,11.0
Restaurante & Cervejaria Urbano's,ChIJ-YH8OD-VpgAR90cCB_MtKWw,4.4,3825.0,1,buffet restaurant,Outro,"R. Joaquim José, 1080 - Fonte Grande, Contagem - MG, 32013-390, Brazil",-19.9242164,-44.0816372,Open ⋅ Closes 4 PM,"Relaxed venue serving steak & rice meals. Informal restaurant offering homestyle classics, including hearty steak & rice dishes.",https://lh5.googleusercontent.com/p/AF1QipPdxGaOnZiXL_iL_UHWAtWN9-ztsSmw3pKNwa4t=w92-h92-k-no,1,1,1,1,1,1,1,11.0,15.0,100.0,100.0,0.0,15.0,43.0,0.0,manha,tarde,1,1,0,0,7.0
Ripito,ChIJlU0P1eFXzpQRmBB7JycdaS0,4.8,101.0,5,restaurant,Oeste,"R. Fradique Coutinho, 312 - Pinheiros, São Paulo - SP, 05416-000, Brazil",-23.5637761,-46.6857913,Open ⋅ Closes 8 PM,,https://lh5.googleusercontent.com/p/AF1QipOdvHbt5gJ3p7r00sbsRgDGIx_rvM6vpk6T4V2C=w92-h92-k-no,0,1,1,1,1,1,1,8.0,20.0,100.0,66.7,0.0,66.0,100.0,17.0,manha,noite,1,1,0,0,4.0
"Bar e Restaurante do Zé - Almoço, lanches e salgados.",ChIJYfVR4q5DzpQRjldVrVqANx8,4.5,437.0,0,restaurant,Outro,"R. Vicente de Carvalho, 666 / 670 - Anchieta, São Bernardo do Campo - SP, 09732-600, Brazil",-23.6817215,-46.5618801,Open ⋅ Closes 11 PM,,https://lh5.googleusercontent.com/p/AF1QipPU-jScKdVAjaHYtl9u2Hop6d4v3H9guHqtLcAT=w91-h92-k-no,1,1,1,1,1,1,1,7.0,23.0,100.0,100.0,0.0,83.0,100.0,68.0,manha,noite,1,1,0,0,12.0
Quinta da Canta,ChIJI4UI6ErwzpQR2jnYNoniTWI,4.7,108.0,1,restaurant,Outro,"Alameda Bélgica, 325 - Zona Rural, Mairiporã - SP, 07619-128, Brazil",-23.3787327,-46.632779,Closed ⋅ Opens 1 PM,,https://lh5.googleusercontent.com/p/AF1QipOiA_3QF52JrXbiD4k0rYwkfAhKREtAptU8Y10l=w80-h106-k-no,1,0,0,0,0,0,1,13.0,18.0,0.0,66.7,0.0,0.0,72.0,0.0,tarde,tarde,1,0,0,0,3.0
Villa Dos Sabores,ChIJFxNU0IZZzpQR49BAjns6ZBU,4.4,405.0,1,restaurant,Sul,"Rua Vergueiro, 2309 - Vila Mariana, São Paulo - SP, 04009-002, Brazil",-23.5820421,-46.6377326,Opens soon ⋅ 11:20 AM,,https://lh5.googleusercontent.com/p/AF1QipPU2iTdP4E5RVj3kcbyVRd0rcUYdikWyyrs3Ohc=w122-h92-k-no,0,1,1,1,1,1,1,11.333333333333334,15.0,100.0,66.7,0.0,10.0,43.0,0.0,manha,tarde,1,1,0,0,0.0
Restaurante Os Barreto,ChIJz0I8YWkfzpQRLNGCHFYeJ0k,4.5,670.0,1,restaurant,Outro,"Av. Pres. Castelo Branco, 6814 - Vila Tupi, Praia Grande - SP, 11703-650, Brazil",-24.0261738,-46.4652682,Open ⋅ Closes 12 AM,,https://lh5.googleusercontent.com/p/AF1QipPepiM0mr-WqceGPJxEe2p3tnUCsvBbbdMrDUZi=w91-h92-k-no,1,1,0,1,1,1,1,10.0,24.0,75.0,100.0,0.0,32.0,100.0,85.0,manha,noite,1,1,0,0,9.0
Dona Ju Restaurante,ChIJtQZkg3BWzpQRkq2tRxqTX6M,4.1,515.0,0,buffet restaurant,Oeste,"R. Frei Inácio da Conceição, 266 - Butantã, São Paulo - SP, 05362-040, Brazil",-23.5714822,-46.7427018,Open ⋅ Closes 3 PM,"Homemade food in an informal setting. Easygoing outpost for home-cooked food, including salads, Brazilian dishes & pasta.",https://lh5.googleusercontent.com/p/AF1QipO3tnWgO5qApiJg_17vYAOw-qGUXJrdbrNb1zHg=w122-h92-k-no,0,1,1,1,1,1,1,10.5,15.0,100.0,66.7,0.0,24.0,43.0,0.0,manha,tarde,1,1,0,0,15.0
Bam food almoço e Marmitex delivery somente pelo ifood,ChIJTUgua3pxVwERdY5FAjUf158,4.4,28.0,5,restaurant,Outro,"Av. São José, 151 - Ayrosa, Osasco - SP, 06283-120, Brazil",-23.5177585,-46.7730938,Open ⋅ Closes 3 PM,,https://lh5.googleusercontent.com/p/AF1QipPLLh_qAQ0Xht_vcU7EUZJ4wbfkVUaDW32iIJMd=w163-h92-k-no,0,1,1,1,1,1,1,8.0,16.0,100.0,66.7,0.0,66.0,58.0,0.0,manha,tarde,1,1,0,0,7.0
Restaurante Mister Chef Almoço E Marmitex,ChIJkygLLsHmzpQRqHanmJ8HlfY,4.7,16.0,5,restaurant,Outro,"Av. Ulisses Guimarães, 1169 - Jardim Rosas, Francisco Morato - SP, 07980-070, Brazil",-23.29253,-46.7330519,Open ⋅ Closes 3 PM,,https://lh5.googleusercontent.com/p/AF1QipOKm8R9o1Y7Ei7M-3Ia-_fThMkA0o7D2880acD2=w82-h92-k-no,0,1,1,1,1,1,1,11.0,15.0,100.0,66.7,0.0,15.0,43.0,0.0,manha,tarde,1,1,0,0,9.0
Cór,ChIJq1cGjSxWzpQRqNuO9_rieo4,4.4,1140.0,2,restaurant,Oeste,"Praça São Marcos, 825 - Alto de Pinheiros, São Paulo - SP, 05455-050, Brazil",-23.5425283,-46.7110187,Closed ⋅ Opens 12 PM,"Refined plates served in a posh eatery. Elegant restaurant featuring high-end recipes & outdoor seating in a lush, garden setting.",https://lh5.googleusercontent.com/p/AF1QipPbqqbhZs-IwLtZ40KNy1uodS-YR9tqdfdmSe4k=w80-h106-k-no,1,1,1,1,1,1,1,12.0,15.0,100.0,100.0,0.0,0.0,43.0,0.0,tarde,tarde,1,1,0,0,2.0
Farfalla Restaurante e Pizzaria - Jardins,ChIJi31f_9pZzpQRLuEytX9Uq7o,4.5,604.0,1,restaurant,Oeste,"R. Pres. Prudente, 117 - Jardim Paulista, São Paulo - SP, 01408-030, Brazil",-23.5699702,-46.6633365,Closed ⋅ Opens 12 PM,"High-end French-Italian cuisine. A charming, spacious, upscale eatery with a varied menu & a lunch buffet.",https://lh5.googleusercontent.com/p/AF1QipMUh2CiCx3YjfN_O7UZhkLzVgo5xoTKzUeMRexw=w122-h92-k-no,1,1,1,1,1,1,1,12.0,15.0,100.0,100.0,0.0,0.0,43.0,0.0,tarde,tarde,1,1,0,0,8.0
Almoço Por Kilo,ChIJc316FAdYzpQRPaRlbHRhKWA,3.9,16.0,5,buffet restaurant,Oeste,"Av. Marquês de São Vicente, 446 - Várzea da Barra Funda, São Paulo - SP, 01139-000, Brazil",-23.5215749,-46.6641253,Closed ⋅ Opens 11 AM Mon,,https://streetviewpixels-pa.googleapis.com/v1/thumbnail?panoid=eZorVYKPzHOcxoqPtqjIIw&cb_client=search.gws-prod.gps&w=80&h=92&yaw=10.641345&pitch=0&thumbfov=100,0,1,1,1,1,1,0,11.0,15.0,100.0,33.3,0.0,15.0,43.0,0.0,manha,tarde,1,1,0,0,1.0
Restaurante e Pizzaria Santa Rita,ChIJ1T9G27EDzpQRvzc0iNV1YMs,4.6,2596.0,1,pizza restaurant,Outro,"Av. Sen. Dantas, 344 - Estuário, Santos - SP, 11015-210, Brazil",-23.9623821,-46.3140422,Open ⋅ Closes 12 AM,,https://lh5.googleusercontent.com/p/AF1QipP4-Zy2DAlYkw7yyyy8LTMxFd8GASe3a0IGH0ZU=w122-h92-k-no,1,1,1,1,1,1,1,11.0,24.0,100.0,100.0,0.0,15.0,100.0,85.0,manha,noite,1,1,0,0,1.0
Ôchopp - Almoço e Happy Hour,ChIJVz438PpazpQRtawF8m-OgX4,4.3,1656.0,1,brazilian restaurant,Sul,"R. Guatapara, 191 - Vila Guarani, São Paulo - SP, 04310-040, Brazil",-23.6341098,-46.6405368,Opens soon ⋅ 11:30 AM,"Self-service restaurant with varied fare. Buffet restaurant offering salads, hot dishes & beer in a simple setting with a big screen TV.",https://lh5.googleusercontent.com/p/AF1QipN-LzAcdaFhKGiTq-ifWz5dfVfcYsprLR8NCCtw=w122-h92-k-no,0,1,1,1,1,1,1,11.5,14.833333333333334,100.0,66.7,0.0,7.0,41.0,0.0,manha,tarde,1,1,0,0,0.0
Restaurante Mari Mariá,ChIJ_w4v8VRYzpQRgI85TJUcStk,4.3,895.0,5,restaurant,Centro,"conj 11 primeiro andar, Largo do Café, 14 - Centro Histórico de São Paulo, São Paulo - SP, 01012-030, Brazil",-23.5462318,-46.6351014,Closed ⋅ Opens 11 AM Mon,,https://lh5.googleusercontent.com/p/AF1QipOOqgRF05f-1Ur96d_yV0_SXKk70DClnJAZmYil=w80-h106-k-no,0,1,1,1,1,1,0,11.0,15.5,100.0,33.3,0.0,15.0,51.0,0.0,manha,tarde,1,1,0,0,12.0
Pratos Tipicos do Brasil,ChIJs2-yL2NnzpQRMLioobsX5vo,4.7,17.0,5,brazilian restaurant,Leste,"R. Ângelo Arloti, 53 - Cidade Líder, São Paulo - SP, 08280-640, Brazil",-23.5598582,-46.4814057,Open ⋅ Closes 11 pm,,https://lh5.googleusercontent.com/p/AF1QipPaie4ALr-5o4JcIL8JqK6APM2E5ohiNCz8JqjR=w92-h92-k-no,1,0,1,1,1,1,1,10.0,23.0,75.0,100.0,0.0,32.0,100.0,68.0,manha,noite,1,1,0,0,10.0
Julieta Restaurante,ChIJU2L0_CeAmQARO9eDslr1KZY,4.7,2065.0,2,restaurant,Outro,"Praia do Flamengo, 340 - primeiro Andar - Flamengo, Rio de Janeiro - RJ, 22210-065, Brazil",-22.9363915,-43.1744513,Closed ⋅ Opens 12 pm,"Classic French haute cuisine. A cozy, opulent French eatery with classic décor & an extensive, sophisticated gourmet menu.",https://lh5.googleusercontent.com/p/AF1QipMeZtnP4aqVY88pwd04ffmMxgEcbqVLQYmjwosR=w80-h106-k-no,1,0,1,1,1,1,1,11.5,23.0,75.0,100.0,0.0,7.0,100.0,68.0,manha,noite,1,1,1,0,4.0
Desejo de Café,ChIJgZKK_Z1QzpQRAyss_2bhefo,4.6,718.0,1,restaurant,Sul,"R. Vieira de Morais, 1183 - Campo Belo, São Paulo - SP, 04617-014, Brazil",-23.6227146,-46.6708904,Open ⋅ Closes 3 pm ⋅ Reopens 6 pm,"Lunch specials in a café & pastry store. A laid-back, informal spot for cakes, specialty coffee & lunch specials.",https://lh5.googleusercontent.com/p/AF1QipNDIH_Ma_jnOaIAbKw5NIUOPMPMUIjBlE62zueR=w122-h92-k-no,1,1,1,1,1,1,1,8.0,15.0,100.0,100.0,0.0,66.0,43.0,0.0,manha,tarde,1,1,0,0,8.0
Lanchonete Aconchego,ChIJEZNDqqVRzpQR9MyfB8-jNuI,4.3,41.0,5,bar,Sul,"R. América Central, 301 - Santo Amaro, São Paulo - SP, 04755-010, Brazil",-23.6467513,-46.711398,Open 24 hours,,https://lh5.googleusercontent.com/p/AF1QipNM_Gr9ihgQXl5yKVPjbwguT4VhXpAl47F3LtRs=w122-h92-k-no,1,1,1,1,1,1,1,,,100.0,100.0,0.0,0.0,0.0,0.0,,,1,1,1,0,
Cantinho da Cecília,ChIJ2RJETEdYzpQRPAQA0rUzgsM,4.3,2682.0,1,pizza restaurant,Centro,"Rua Dona Veridiana, 14 - Vila Buarque, São Paulo - SP, 01238-010, Brazil",-23.5396833,-46.6504932,Open ⋅ Closes 1 am,"Simple & cozy restaurant. Varied buffet of salads & hot dishes at lunch, with soups & pizzas at night.",https://lh5.googleusercontent.com/p/AF1QipOZFaOB5_h6xqG1UXKFJYf0N-a2flKWhReGlP4F=w122-h92-k-no,1,1,1,1,1,1,1,11.0,1.0,100.0,100.0,0.0,15.0,100.0,85.0,manha,madrugada,1,1,0,0,7.0
Cantinho Da Val Lanches & Almoço,ChIJU85wPq7-zpQRAz13sT3bkXw,4.0,2.0,5,restaurant,Oeste,"R. Jurubim, 927 - Vila Boacava, São Paulo - SP, 05170-100, Brazil",-23.4835872,-46.7540043,Open ⋅ Closes 2 pm,,https://streetviewpixels-pa.googleapis.com/v1/thumbnail?panoid=MDScrBviZ3gtKHfShrxxWQ&cb_client=search.gws-prod.gps&w=80&h=92&yaw=221.23515&pitch=0&thumbfov=100,0,1,1,1,1,1,1,11.0,18.0,100.0,66.7,0.0,15.0,87.0,0.0,manha,tarde,1,1,0,0,3.0
Abbraccio Cucina Italiana,ChIJly3wj0hXzpQRuUtgMoo298A,4.5,2700.0,2,italian restaurant,Oeste,"R. Olimpíadas, 360 Shopping - Térreo - Loja 123/124 - Vila Olímpia, São Paulo - SP, 04551-000, Brazil",-23.595596,-46.6866818,Closed ⋅ Opens 12 pm,Italian food in a refined setting. Upscale Italian restaurant with wine list specializing in ravioli stuffed with lobster cream.,https://lh5.googleusercontent.com/p/AF1QipPH8hKSVDVTVK0V0i6yrUhdeZamvgy3SwMs5UI=w122-h92-k-no,1,1,1,1,1,1,1,12.0,15.5,100.0,100.0,0.0,0.0,51.0,0.0,tarde,tarde,1,1,0,0,2.0
Restaurante da Cuca,ChIJq9ukJ6RZzpQRaysBdwigZUM,4.1,19.0,0,restaurant,Centro,"R. São Joaquim, 191 - Liberdade, São Paulo - SP, 01508-001, Brazil",-23.561638,-46.6368481,Open ⋅ Closes 12 am,,https://lh5.googleusercontent.com/p/AF1QipODKBmRDZ36oqVrCpD2uQUumpn4dXTBkXd4X6Ug=w80-h122-k-no,1,1,1,1,1,1,1,5.5,22.5,100.0,100.0,8.0,100.0,100.0,59.0,madrugada,noite,1,1,0,0,10.0
Violeta Bar e Restaurante,ChIJlTfyNjNYzpQR-GqbbXf3QLc,4.3,7972.0,1,brazilian restaurant,Centro,"R. Augusta, 1343 - Consolação, São Paulo - SP, 01305-100, Brazil",-23.5557678,-46.6574468,Open ⋅ Closes 3 am,"Large space for drinks & Brazilian fare. Expansive, airy setting for cocktails & beers, plus burgers, steaks & Brazilian dishes.",https://lh5.googleusercontent.com/p/AF1QipOXT_iSD0Ph18syP7toX4c1rURUIzqsBTPqkQo=w80-h106-k-no,1,1,1,1,1,1,1,11.0,3.0,100.0,100.0,0.0,15.0,100.0,85.0,manha,madrugada,1,1,0,0,7.0
Almoço e Feijoada da Mama,ChIJ_VPJGbxTzpQRKc397kmaRPc,4.2,19.0,5,restaurant,Outro,"R. Chico Mendes, 105 - Jardim Margarida, Taboão da Serra - SP, 06786-080, Brazil",-23.6275555,-46.8124232,Open ⋅ Closes 4 pm,,https://lh5.googleusercontent.com/p/AF1QipNakiULdNUXv6HZ5sPuu9Wh50jIYyOT6AJcQK97=w122-h92-k-no,1,1,1,1,1,1,1,11.0,16.0,100.0,100.0,0.0,15.0,58.0,0.0,manha,tarde,1,1,0,0,12.0
C&A Café E Almoço,ChIJjbffWgRGzpQRf2F0o_XBXwM,4.1,12.0,5,restaurant,Sul,"Estrada Ligação, 74 - Jardim Monte Verde, São Paulo - SP, 04851-501, Brazil",-23.755743,-46.6640823,Open ⋅ Closes 6 pm,,https://lh5.googleusercontent.com/p/AF1QipMAdQspCfZBBzE06dWMeFkRpsE4zUvjItgcrBYH=w163-h92-k-no,0,1,1,1,1,1,1,8.5,18.0,100.0,66.7,0.0,58.0,87.0,0.0,manha,tarde,1,1,0,0,11.0
Lanchonete Anchieta,ChIJHwiD1VBYzpQRl1Hj2kZBJu0,4.3,1068.0,1,bar,Centro,"R. Antônio de Godói, 128 - Centro Histórico de São Paulo, São Paulo - SP, 01031-001, Brazil",-23.5418307,-46.6369991,Open ⋅ Closes 10 pm,,https://lh5.googleusercontent.com/p/AF1QipOnm83DaGNwDZjgBxrPlzQHiaC37DvHK3iOdA88=w122-h92-k-no,0,1,1,1,1,1,1,6.0,22.0,100.0,66.7,0.0,100.0,100.0,51.0,manha,noite,1,1,1,0,6.0
Restaurante Famiglia Di Nóca,ChIJ7Ye24uRXzpQRU9LExQl_5GM,4.6,524.0,1,restaurant,Oeste,"Rua Desembargador do Vale, 50 - Perdizes, São Paulo - SP, 05010-040, Brazil",-23.5334723,-46.6820297,Opens soon ⋅ 11:30 AM,A family-friendly spot for homemade food. Weigh & pay restaurant serving traditional homemade dishes in a family-friendly setting.,https://lh5.googleusercontent.com/p/AF1QipNyFD5Bif5t46wNrMHFW6Fa06VcRcJEC9LM9vQE=w82-h92-k-no,0,1,1,1,1,1,1,11.5,14.5,100.0,66.7,0.0,7.0,36.0,0.0,manha,tarde,1,1,0,0,15.0
Restaurante São Rafael,ChIJ2Tf8UrEdzpQRPHW2oHflQSU,4.5,1078.0,1,buffet restaurant,Outro,"Av. Brasil, 295 - Boqueirão, Praia Grande - SP, 11701-090, Brazil",-24.0097507,-46.4151543,Opens soon ⋅ 11:30 AM,,https://lh5.googleusercontent.com/p/AF1QipOwcXRd6M5MKivYzQAIGZCVmM5uZHUcUC855k3M=w143-h92-k-no,0,1,1,1,1,1,1,11.5,15.5,100.0,66.7,0.0,7.0,51.0,0.0,manha,tarde,1,1,0,0,2.0
Petí Gastronomia,ChIJJbZy-eJXzpQRTboswSgLJX0,4.6,617.0,1,restaurant,Oeste,"R. Cotoxó, 110 - Pompeia, São Paulo - SP, 05021-000, Brazil",-23.5284092,-46.6824556,Closed ⋅ Opens 12 PM,"Contemporary cuisine in an elegant space. Contemporary food with a gourmet twist served in a modern, sophisticated spot with natural décor.",https://lh5.googleusercontent.com/p/AF1QipNYRSCzqjnJaFzUI5J-FTf9YcIkdOOOfW_I7AXL=w194-h92-k-no,1,0,1,1,1,1,1,12.0,15.0,75.0,100.0,0.0,0.0,43.0,0.0,tarde,tarde,1,1,0,0,15.0
Restaurante Bom D+,ChIJ0xa4iOABzpQRcVhyBrab-E8,4.4,81.0,5,brazilian restaurant,Outro,"R. Manoel Araújo, 369 - Vila Santo Antônio, Guarujá - SP, 11432-390, Brazil",-23.9874162,-46.2675265,Open ⋅ Closes 4 PM,,https://lh5.googleusercontent.com/p/AF1QipPS1lbDHj6M6xcdl-RF-rxuNMGVU9iBNHbTNLQP=w163-h92-k-no,0,1,1,1,1,1,1,8.0,16.0,100.0,66.7,0.0,66.0,58.0,0.0,manha,tarde,1,1,0,0,7.0
Restaurante Tia Tande,ChIJY5jcW75YzpQRnb6aE8ef-9w,4.4,114.0,0,brazilian restaurant,Norte,"R. Doze de Setembro, 481 - Vila Guilherme, São Paulo - SP, 02052-000, Brazil",-23.5176672,-46.6105374,Closed ⋅ Opens 7 AM Mon,,https://lh5.googleusercontent.com/p/AF1QipPcwNvPZZOBzzXKGpMwp3HsN8oWu6m1CicIBIGH=w122-h92-k-no,0,1,1,1,1,1,0,7.0,15.5,100.0,33.3,0.0,83.0,51.0,0.0,manha,tarde,1,1,1,0,14.0
Restaurante Barato 10 Reais,ChIJwYH8Pv9YzpQRsWlsCHK6gQ8,4.7,7.0,5,restaurant,Centro,"R. da Cantareira, 120 - Centro Histórico de São Paulo, São Paulo - SP, 01024-000, Brazil",-23.5431179,-46.6305137,,,https://streetviewpixels-pa.googleapis.com/v1/thumbnail?panoid=wT6R-2NWR5pjnjMJrHF8EA&cb_client=search.gws-prod.gps&w=80&h=92&yaw=82.35603&pitch=0&thumbfov=100,1,1,1,1,1,1,1,,,100.0,100.0,0.0,0.0,0.0,0.0,,,1,0,0,0,
Bom Gosto Restaurante (Paulista),ChIJYXmo1MdZzpQRLxnXxWeaLiI,4.4,218.0,5,buffet restaurant,Oeste,"Av. Paulista, 1159 - Loja 21 - Bela Vista, São Paulo - SP, 01310-100, Brazil",-23.5646198,-46.6535726,Closed ⋅ Opens 11 AM Mon,,https://lh5.googleusercontent.com/p/AF1QipMVi65MoPOclCRigThLnmWch3jK4htiBaBpFBBE=w122-h92-k-no,0,1,1,1,1,1,0,11.0,15.5,100.0,33.3,0.0,15.0,51.0,0.0,manha,tarde,1,1,0,0,12.0
Restaurante Bom Petisco,ChIJfcuJXcqJzJQRZwO96jHpdhk,4.2,630.0,1,brazilian restaurant,Outro,"Av. Dr. Januário Miraglia, 2696 - V Telma, Campos do Jordão - SP, 12460-000, Brazil",-22.7300753,-45.58243,Open ⋅ Closes 5 PM,,https://lh5.googleusercontent.com/p/AF1QipOcEsHy3tjHPXTKCHGC6Xr9aZq8H_XmuPqSQJsC=w122-h92-k-no,1,1,1,1,1,1,1,8.0,17.0,100.0,100.0,0.0,66.0,72.0,0.0,manha,tarde,1,1,1,0,7.0
satisfeitos,ChIJAQDQrjOYpgARjNpL_GcfP18,4.7,21.0,5,restaurant,Outro,"R. Antônio de Albuquerque, 862 - Funcionários, Belo Horizonte - MG, 30112-011, Brazil",-19.9373699,-43.938422,,,https://lh5.googleusercontent.com/p/AF1QipO4LQzrUjUaNipHy571diAT5MujUiTTYH4wuhw=w80-h106-k-no,1,1,1,1,1,1,1,,,100.0,100.0,0.0,0.0,0.0,0.0,,,1,1,1,0,
Restaurante Sr. dos Pratos,ChIJaW0BBQBRzpQRyvVRhbngUtk,4.3,169.0,0,brazilian restaurant,Sul,"R. Cerqueira César, 335 - Santo Amaro, São Paulo - SP, 04750-080, Brazil",-23.6501145,-46.7096212,Open ⋅ Closes 9 PM,,https://lh5.googleusercontent.com/p/AF1QipNbsYJsPRz0tZLP4yGUuXcXRe38gFCLSAGXcpT0=w80-h142-k-no,0,1,1,1,1,1,1,7.0,21.0,100.0,66.7,0.0,83.0,100.0,34.0,manha,noite,1,1,0,0,7.0
Cacerola,ChIJ5XwKfcmJzJQRRlsb_-K8VQ0,4.5,1294.0,1,restaurant,Outro,"R. Dep. Claro César, 15 - Vila Telma, Campos do Jordão - SP, 12460-000, Brazil",-22.7357454,-45.5860244,Open ⋅ Closes 4 PM,,https://lh5.googleusercontent.com/p/AF1QipOB2x6osMS1NaivUSHMwmp_fJwoLMulARILqh36=w122-h92-k-no,1,0,0,1,1,1,1,11.0,16.0,50.0,100.0,0.0,15.0,58.0,0.0,manha,tarde,1,1,0,0,11.0
Restaurante Saída 26,ChIJk75Rn88Dz5QRUmmqbXtg4Ug,4.4,311.0,1,restaurant,Outro,"R. Independência, 15 - Vila Boa Vista, Barueri - SP, 06411-050, Brazil",-23.5039835,-46.8726968,Open ⋅ Closes 10 PM,,https://lh5.googleusercontent.com/p/AF1QipPSb3RLTfndV5ek62K4_pMspvDq6HI1Y9puAzAK=w80-h106-k-no,0,1,1,1,1,1,1,8.5,22.0,100.0,66.7,0.0,58.0,100.0,51.0,manha,noite,1,1,1,0,4.0
Restaurante Puro Sabor de Ipanema,ChIJOWpmNwXVmwARAerbOcgrZLE,4.4,77.0,0,brazilian restaurant,Outro,"R. Visc. de Pirajá, 303 - loja 319 - Ipanema, Rio de Janeiro - RJ, 22040-001, Brazil",-22.9844983,-43.2043511,Open ⋅ Closes 4 PM,,https://lh5.googleusercontent.com/p/AF1QipO3XXrKDe0RpGcpltyyTeEGFTl5YU5SR_U1PxYt=w80-h106-k-no,0,1,1,1,1,1,1,11.0,16.0,100.0,66.7,0.0,15.0,58.0,0.0,manha,tarde,1,1,0,0,5.0
Fitó,ChIJnQuaS6dXzpQRdJ_Bk-VLcIo,4.5,2476.0,1,brazilian restaurant,Oeste,"Rua Cardeal Arcoverde, 2773 - Pinheiros, São Paulo - SP, 05407-004, Brazil",-23.56814,-46.69487,Closed ⋅ Opens 12 PM,"Hip spot for classic cuisine & cocktails. Trendy, contemporary setting for traditional dishes, plus classic & inventive cocktails.",https://lh5.googleusercontent.com/p/AF1QipO6o8TVAA-itCvkBPl-xE0P_EFJ8cuZNU4p4JCF=w80-h106-k-no,1,1,1,1,1,1,1,12.0,15.5,100.0,100.0,0.0,0.0,51.0,0.0,tarde,tarde,1,1,0,0,2.0
Tempero Manero,ChIJzXOTr3F6zpQREonFacwk8sg,4.4,1740.0,0,buffet restaurant,Outro,"R. Tiradentes, 34 - Conj. Res. Irai, Suzano - SP, 08673-150, Brazil",-23.5422354,-46.3116086,Open ⋅ Closes 3 PM,,https://lh5.googleusercontent.com/p/AF1QipM672IO211CsqrAZCu043A5RXgc9_CDrHi-lFYb=w122-h92-k-no,0,1,1,1,1,1,1,11.0,15.0,100.0,66.7,0.0,15.0,43.0,0.0,manha,tarde,1,1,0,0,14.0
Talheres Restaurante Self-Service,ChIJGwycOXNXzpQR_DOWfX0PAfk,4.2,26.0,5,buffet restaurant,Oeste,"Shopping Vitrine, Av. Brg. Faria Lima, 1827 - Loja 46/47 - Jardim Paulistano, São Paulo - SP, 01452-001, Brazil",-23.572911,-46.688707,Open ⋅ Closes 3:30 PM,,https://lh5.googleusercontent.com/p/AF1QipNLgk3ywj9cnO6U6KRTVL7EJnOgZPlfmHqnh5y1=w122-h92-k-no,0,1,1,1,1,1,1,11.0,15.5,100.0,66.7,0.0,15.0,51.0,0.0,manha,tarde,1,1,0,0,13.0
Bom de Minas Restaurante,ChIJWwr1weBQzpQRRbgL43Cbh5I,4.2,998.0,1,brazilian restaurant,Sul,"Rua Alexandre Dumas, 1511 - Santo Amaro, São Paulo - SP, 04717-003, Brazil",-23.631469,-46.705459,Open ⋅ Closes 5 PM,,https://lh5.googleusercontent.com/p/AF1QipPb_W-zRUxLehrcpk9-F0Q7x3QynAiD6c_7ShAi=w122-h92-k-no,1,1,1,1,1,1,1,11.0,16.0,100.0,100.0,0.0,15.0,58.0,0.0,manha,tarde,1,1,0,0,0.0
Restaurante Pais & Filhos,ChIJT2hqm6NXzpQRrtvbTCDo_OM,4.4,147.0,0,restaurant,Oeste,"R. Cunha Gago, 814 - Pinheiros, São Paulo - SP, 05421-001, Brazil",-23.5619767,-46.6939986,Closed ⋅ Opens 11 AM Mon,,https://lh5.googleusercontent.com/p/AF1QipNPZqX-tyom37VQv3-BpxJ3DVfR7Ki5adFpVDX1=w80-h106-k-no,0,1,1,1,1,1,0,11.0,15.0,100.0,33.3,0.0,15.0,43.0,0.0,manha,tarde,1,0,1,0,6.0
Restaurante Diniz,ChIJl5gYIPofzpQRHYBK-sTjfIA,4.8,41.0,5,restaurant,Outro,"Av. Pres. Kennedy, 6939 - Cidade Ocian, Praia Grande - SP, 11704-105, Brazil",-24.0243583,-46.4749455,Open ⋅ Closes 4 PM,,https://lh5.googleusercontent.com/p/AF1QipO1fqe-Uy9RpN3VZf1jPnS5TQJneYI5fFp6RMbq=w80-h106-k-no,1,1,1,1,1,1,1,10.0,16.0,100.0,100.0,0.0,32.0,58.0,0.0,manha,tarde,1,1,0,0,12.0
Restaurante Bom de Garfo,ChIJ5y4kLmwDzpQRmWL0QjyMpWA,4.4,132.0,0,buffet restaurant,Outro,"R. Carvalho de Mendonça, 352 - Vila Belmiro, Santos - SP, 11070-103, Brazil",-23.9530622,-46.3351778,Open ⋅ Closes 3 pm,,https://lh5.googleusercontent.com/p/AF1QipO54A0P0AIsNtnaSkslogB8DaTJEevMc2cVZDcl=w80-h142-k-no,0,1,1,1,1,1,1,11.0,15.5,100.0,66.7,0.0,15.0,51.0,0.0,manha,tarde,1,1,0,0,5.0
Restaurante & grill Per Tutti,ChIJCSATGsUY35QRfKsA2-RcpDM,4.7,1220.0,1,restaurant,Outro,"R. Dr. Amadeu da Luz, 40 - Centro, Blumenau - SC, 89010-160, Brazil",-26.9153132,-49.0699283,Open ⋅ Closes 2:30 pm,,https://lh5.googleusercontent.com/p/AF1QipP3Ns-NvNx5-uUfSZGAEQ7aA-6huDjOgDhZmuvI=w138-h92-k-no,0,1,1,1,1,1,1,10.75,14.5,100.0,66.7,0.0,19.0,36.0,0.0,manha,tarde,1,1,0,0,13.0
Cantina Gigio,ChIJA106w3dXzpQR8LrzPvJJyNg,4.6,7565.0,1,italian restaurant,Oeste,"R. dos Pinheiros, 355 - Pinheiros, São Paulo - SP, 05422-010, Brazil",-23.5653484,-46.6814729,Opens soon ⋅ 11:30 am,Classic Italian food in a family setting. An Italian diner with several kinds of pastas & fresh sauces in a spacious family-friendly setting.,https://lh5.googleusercontent.com/p/AF1QipPQ6F87pxajeqbBP2P3cY4o6e-mvjvfeNLKOBaA=w111-h92-k-no,1,1,1,1,1,1,1,11.5,24.0,100.0,100.0,0.0,7.0,100.0,85.0,manha,noite,1,1,0,0,3.0
Paraiso da Moema,ChIJzVK5uQ9azpQRa5TUUr5dz4s,4.7,106.0,0,bar,Sul,"Av. Jandira, 248 - Moema, São Paulo - SP, 04080-007, Brazil",-23.6072471,-46.6623559,Open ⋅ Closes 8 pm,,https://lh5.googleusercontent.com/p/AF1QipM4r2vWBKeSSpdDvLkifBXGxYtJmFXT_QMHsJ8N=w194-h92-k-no,0,1,1,1,1,1,1,7.0,22.0,100.0,66.7,0.0,83.0,100.0,51.0,manha,noite,1,1,0,0,7.0
Restaurante SueD,ChIJBw5NfFJgzpQRqg20dUIKLOI,4.5,25.0,5,restaurant,Leste,"Av. Paranaguá, 2352 - Ermelino Matarazzo, São Paulo - SP, 03806-000, Brazil",-23.4856611,-46.480312,Open ⋅ Closes 2:30 pm,,https://lh5.googleusercontent.com/p/AF1QipMtK9Moc9Q36Uo1VtPuTAih8XHWtTyvkuWAKPNn=w80-h142-k-no,0,1,1,1,1,1,1,10.5,14.5,100.0,66.7,0.0,24.0,36.0,0.0,manha,tarde,1,1,0,0,13.0
Restaurante Goes França,ChIJFzxh-9FhzpQRlYu07GKxEPg,4.5,172.0,0,restaurant,Outro,"Av. Patos, 879 - Cidade Industrial Satélite de São Paulo, Guarulhos - SP, 07222-010, Brazil",-23.463105,-46.472397,Closed ⋅ Opens 6 am Mon,,https://lh5.googleusercontent.com/p/AF1QipOqs7Xb1r4No26QTjLrYD6acUReWdPOqpdRX7TX=w163-h92-k-no,0,1,1,1,1,1,0,6.0,20.0,100.0,33.3,0.0,100.0,100.0,17.0,manha,noite,1,1,0,0,14.0
Mugui,ChIJZW9ooKlZzpQRpE2_1q2Udcs,4.7,1474.0,1,japanese restaurant,Centro,"R. da Glória, 111 - Liberdade, São Paulo - SP, 01510-000, Brazil",-23.5541355,-46.6340841,Opens soon ⋅ 11:30 am,"Easygoing Japanese noodle house. Understated eatery with counter seating serving noodle soup, yakisoba & other Japanese standards.",https://lh5.googleusercontent.com/p/AF1QipPC7hMCMEk8UNeYvziytbxD-K9uuqYsaA2LjCd4=w163-h92-k-no,0,0,1,1,1,1,1,11.5,14.5,75.0,66.7,0.0,7.0,36.0,0.0,manha,tarde,1,1,0,0,5.0
Restaurante Pio XII,ChIJd1J6HlX1zpQRrSBtZQ5IMmI,4.5,1106.0,0,buffet restaurant,Outro,"Av. Papa Pio XII, 172 - Macedo, Guarulhos - SP, 07113-000, Brazil",-23.4674389,-46.5176639,Opens soon ⋅ 11:30 am,,https://lh5.googleusercontent.com/p/AF1QipNoL8Km41PXHQZAGGMrQeI7_Hc2QatByWIDRGUa=w163-h92-k-no,0,1,1,1,1,1,1,11.5,15.5,100.0,66.7,0.0,7.0,51.0,0.0,manha,tarde,1,1,0,0,2.0
Restaurante Ímpar,ChIJ73dkTbtgzpQRu9KamYVtR3E,4.4,3231.0,1,restaurant,Leste,"Av. Antônio Estevão de Carvalho, 1588 - Cidade Patriarca, São Paulo - SP, 03540-100, Brazil",-23.5281281,-46.5082724,Opens soon ⋅ 11:30 am,"A bistro with fondue & cultural vibe. A bistro serving salads, soup, grilled food, fondue & sweets, with famous paintings on the menu.",https://lh5.googleusercontent.com/p/AF1QipNNmUCUSerISa1B9Oq6tTpw1mZNmUQOdn9V8rdi=w141-h92-k-no,1,1,1,1,1,1,1,11.333333333333334,15.5,100.0,100.0,0.0,10.0,51.0,0.0,manha,tarde,1,1,0,0,12.0
Restaurante Super Barato,ChIJu4l6ek30tZQRjTzb2STLprI,4.5,2.0,5,restaurant,Outro,"R. Antônio Pedro de Oliveira, 979 - Vila Betania II, Alfenas - MG, 37130-000, Brazil",-21.4186924,-45.9521347,,,https://streetviewpixels-pa.googleapis.com/v1/thumbnail?panoid=fUMO7RCV9mUj-zDjYR3kew&cb_client=search.gws-prod.gps&w=80&h=92&yaw=277.98074&pitch=0&thumbfov=100,1,1,1,1,1,1,1,,,100.0,100.0,0.0,0.0,0.0,0.0,,,1,1,1,0,
Restaurante Mamarella,ChIJGQrHUAlazpQR_0QoODi34E4,4.5,292.0,0,restaurant,Sul,"Alameda dos Jurupis, 1577 - Moema, São Paulo - SP, 04088-005, Brazil",-23.6112088,-46.6661397,Open ⋅ Closes 5 pm,,https://lh5.googleusercontent.com/p/AF1QipOvPvV61VVi3k5hxzj54-4ra6S58-jdXirKZYrb=w163-h92-k-no,0,1,1,1,1,1,1,11.0,17.0,100.0,66.7,0.0,15.0,72.0,0.0,manha,tarde,1,1,0,0,13.0
Restaurante Barão Gourmet,ChIJe2FMORenmQARliqj3365oTc,4.9,14.0,5,restaurant,Outro,"Shopping D. Pedro II, Rua do Imperador, nº 288 - sobreloja 1 - Centro, Petrópolis - RJ, 25620-000, Brazil",-22.5082792,-43.172707,Open ⋅ Closes 3:30 pm,,https://lh5.googleusercontent.com/p/AF1QipNRWVls2gU4VYY75wktjCI9wNA3_2ak1XQHIB1P=w80-h92-k-no-pi-0-ya61.800003-ro-0-fo100,0,1,1,1,1,1,1,11.0,15.5,100.0,66.7,0.0,15.0,51.0,0.0,manha,tarde,1,1,1,0,13.0
Típico Paulista,ChIJ7c6iLMlZzpQRNEkAv1Nfd44,4.2,69.0,5,restaurant,Oeste,"Av. Paulista, 1499 - Bela Vista, São Paulo - SP, 01310-100, Brazil",-23.5624469,-46.6559816,Open ⋅ Closes 3 pm,,https://lh5.googleusercontent.com/p/AF1QipNqARbaRzZtG5TKI-I2E-Kmz3I0LAP4JZcqUNJY=w122-h92-k-no,0,1,1,1,1,1,1,11.0,15.0,100.0,66.7,0.0,15.0,43.0,0.0,manha,tarde,1,1,1,0,9.0
Restaurante e Lanchonete Nova Pinheiros,ChIJkQMZowpXzpQRflk4aBWytws,4.3,1039.0,0,brazilian restaurant,Oeste,"R. dos Pinheiros, 1363 - Pinheiros, São Paulo - SP, 05422-012, Brazil",-23.5682265,-46.6909007,Open ⋅ Closes 12 AM,,https://lh5.googleusercontent.com/p/AF1QipO0uw-kVSPIhyCQNxgaXMJYF5KgzemgZz7jl2nA=w80-h142-k-no,1,1,1,1,1,1,1,6.0,24.0,100.0,100.0,0.0,100.0,100.0,85.0,manha,noite,1,1,0,0,11.0
LEVANTE BAR E RESTAURANTE,ChIJl1-TCg1fzpQReolH5hXG8-8,4.9,14.0,5,restaurant,Leste,"R. Comendador Cantinho, 435 - Penha de França, São Paulo - SP, 03603-020, Brazil",-23.5246802,-46.5501657,Open ⋅ Closes 9 PM,,https://lh5.googleusercontent.com/p/AF1QipPSk0G5BVPGrsIQ6XzSvGzXJFeElesIZ5UPuepe=w138-h92-k-no,0,1,1,1,1,1,1,8.0,21.0,100.0,66.7,0.0,66.0,100.0,34.0,manha,noite,1,1,0,0,7.0
Prato Feito PPD,ChIJoVhEXAtZzpQRJCPYwI3nZvo,4.6,325.0,5,restaurant,Centro,"R. Nestor Pestana, 109 - Consolação, São Paulo - SP, 01303-010, Brazil",-23.5484881,-46.6453276,Opens soon ⋅ 11:30 AM,,https://lh5.googleusercontent.com/p/AF1QipPG5sJX2NUIOH3s-qX8_2WgLqZOV0VLwb2-QSAD=w80-h106-k-no,1,1,1,1,1,1,1,11.5,18.0,100.0,100.0,0.0,7.0,87.0,0.0,manha,tarde,1,1,0,0,1.0
Santa Luzia Restaurante,ChIJ9SymEm6LzpQRqPCEF0SstdA,4.0,904.0,5,brazilian restaurant,Outro,"Sao Paulo International Airport, Piso Térreo, SP-019, s/n - Cumbica, Guarulhos - SP, 07190-100, Brazil",-23.4261196,-46.481447,Open 24 hours,,https://lh5.googleusercontent.com/p/AF1QipO2ef6Q-cGC8Xp1mwPbPTSaysXuCPD4Qlf3MBil=w163-h92-k-no,1,1,1,1,1,1,1,,,100.0,100.0,0.0,0.0,0.0,0.0,,,1,1,0,0,
quilinho,ChIJ5_s8IHtZzpQRogxM7GDdJFc,3.7,152.0,5,buffet restaurant,Centro,"Av. Lins de Vasconcelos, 1370 - Cambuci, São Paulo - SP, 01538-001, Brazil",-23.5754223,-46.6235089,Opens soon ⋅ 11:30 AM,,https://lh5.googleusercontent.com/p/AF1QipNipFUvQvusMY56zQYQJVcT5sPt9gEkj9kRtsqp=w80-h106-k-no,0,1,1,1,1,1,1,11.5,15.0,100.0,66.7,0.0,7.0,43.0,0.0,manha,tarde,1,1,0,0,2.0
Yellow Restaurante,ChIJ01_spJFZzpQRqrIza3aV6iU,4.6,91.0,5,buffet restaurant,Sul,"Rua Coronel Oscar Porto, 1082 - Paraíso, São Paulo - SP, 04003-005, Brazil",-23.5784894,-46.6448163,Closed ⋅ Opens 11:30 AM Mon,,https://lh5.googleusercontent.com/p/AF1QipM63RrI_VHesoS5kxMrsQcKk_iR4rZRqIxuI_Dx=w122-h92-k-no,0,1,1,1,1,0,0,11.5,14.5,100.0,0.0,0.0,7.0,36.0,0.0,manha,tarde,1,1,0,0,10.0
Mestiço,ChIJVXVFNjJYzpQRqyWHMYK1C18,4.6,2694.0,2,restaurant,Centro,"R. Fernando de Albuquerque, 277 - Consolação, São Paulo - SP, 01309-030, Brazil",-23.5532048,-46.6588429,Closed ⋅ Opens 12 PM,"Modern Thai & Bahia cuisine. Eclectic, contemporary cuisine with Thai specialties & Bahian touches in an informal dining space.",https://lh5.googleusercontent.com/p/AF1QipNYXchHIS8dhpO7uCfh6ExNv5ytJ-WzMz6U_3zq=w122-h92-k-no,1,1,1,1,1,1,1,12.0,1.0,100.0,100.0,0.0,0.0,100.0,85.0,tarde,madrugada,1,1,0,0,1.0
Vicolo Nostro,ChIJn8NM579QzpQRWT06N8pdDgQ,4.7,3755.0,3,italian restaurant,Oeste,"Rua Jataituba, 29 - Cidade Monções, São Paulo - SP, 04704-090, Brazil",-23.6239624,-46.6886719,Closed ⋅ Opens 12 PM,Italian cuisine in an elegant setting. An upscale Italian restaurant in a charming classic townhouse with intimate lighting & a garden.,https://lh5.googleusercontent.com/p/AF1QipM7YBsrrtLkSMHA83HxDJnZaZ9ZO59ys_fNxmV4=w163-h92-k-no,1,1,1,1,1,1,1,12.0,15.0,100.0,100.0,0.0,0.0,43.0,0.0,tarde,tarde,1,1,0,0,8.0
Morais & Marques Restaurante,ChIJwePGXU9XzpQRYTbjbYcmiSg,4.3,129.0,0,buffet restaurant,Oeste,"Rua Feliciana Panieri Ricco, 38 - Vila Olímpia, São Paulo - SP, 04551-020, Brazil",-23.5947893,-46.6841005,Closed ⋅ Opens 11 AM Mon,,https://lh5.googleusercontent.com/p/AF1QipPq0YbZgJbpQwv0vtWhCJGdO5G3tNgOoAGhBmCu=w163-h92-k-no,0,1,1,1,1,1,0,11.0,15.0,100.0,33.3,0.0,15.0,43.0,0.0,manha,tarde,1,0,0,0,6.0
Tenda Árabe,ChIJ8fhlMelbzpQROHh5INSx6uY,4.3,701.0,1,middle eastern restaurant,Sul,"R. Xavier de Almeida, 406 - Ipiranga, São Paulo - SP, 04211-000, Brazil",-23.58952,-46.6083439,Closed ⋅ Opens 12 PM,"A casual, cozy, Middle Eastern joint. An informal, family-friendly spot that serves classic Middle Eastern dishes, snacks & desserts.",https://lh5.googleusercontent.com/p/AF1QipOV5c1jJ-LtARA5QKZsoHxSMqr7n4gpFi3u6Zvz=w204-h92-k-no,1,0,1,1,1,1,1,12.0,23.0,75.0,100.0,0.0,0.0,100.0,68.0,tarde,noite,1,1,0,0,4.0
Vila das Rosas,ChIJ15_vxKRXzpQR7q5wWc0L3oM,4.7,543.0,1,health food restaurant,Oeste,"R. Padre Carvalho, 117 - Pinheiros, São Paulo - SP, 05427-100, Brazil",-23.5608492,-46.6963792,Closed ⋅ Opens 12 PM,"Casual vegan & vegetarian lunch cafe. Low-key lunchtime restaurant offering creative veggie & vegan dishes, plus frozen meals to go.",https://lh5.googleusercontent.com/p/AF1QipOfFWMy4GzJaohAdP0c5CaXRdXZgXiXhs8DD9Vd=w122-h92-k-no,1,0,1,1,1,1,1,11.5,16.0,75.0,100.0,0.0,7.0,58.0,0.0,manha,tarde,1,1,0,0,8.0
Bar e Restaurante Avenida,ChIJOxDKZecDzpQRzu_YYUBdOb4,4.6,134.0,5,restaurant,Outro,"Av. Dr. Pedro Lessa, 1034 - Ponta da Praia, Santos - SP, 11025-000, Brazil",-23.975202,-46.302663,Open ⋅ Closes 2 AM,,https://lh5.googleusercontent.com/p/AF1QipPrFxQcLTUrM6qPZ9MXDvEh0ralmwB0nYcIecdb=w122-h92-k-no,1,1,1,1,1,1,1,6.0,2.0,100.0,100.0,0.0,100.0,100.0,85.0,manha,madrugada,1,1,0,0,10.0
Bar Guanabara - O Bar Mais Antigo de São Paulo,ChIJ1faqFVRYzpQREQql76sHeE0,4.2,1463.0,1,restaurant,Centro,"Av. São João, 128 - Centro Histórico de São Paulo, São Paulo - SP, 01035-000, Brazil",-23.5446757,-46.6357951,Open ⋅ Closes 5 PM,"Traditional restaurant & café. Classic restaurant serving à-la-carte dishes, savory pastries & sandwiches in an informal setting.",https://lh5.googleusercontent.com/p/AF1QipPwb0t7RqTheHpE6-__ugwdR4RMef0XivJJSKEM=w80-h100-k-no,0,1,1,1,1,1,1,9.0,17.0,100.0,66.7,0.0,49.0,72.0,0.0,manha,tarde,1,1,1,0,3.0
Cantina Italiana Famiglia Rossi,ChIJT1JB8_RczpQRmHfeUAtXU5I,4.6,1790.0,1,italian restaurant,Outro,"R. Herculano de Freitas, 323 - Fundação, São Caetano do Sul - SP, 09520-280, Brazil",-23.606215,-46.571525,Open ⋅ Closes 4 PM,,https://lh5.googleusercontent.com/p/AF1QipMBE3j1LxLsTB1zdeHZtrb8ZxiqMWT17OEy0fSo=w122-h92-k-no,1,0,0,1,1,0,1,10.0,16.0,50.0,66.7,0.0,32.0,58.0,0.0,manha,tarde,1,1,0,0,5.0
Bolinha Restaurante,ChIJfUd9M29XzpQRXVbYNG3rM00,4.4,1646.0,2,brazilian restaurant,Oeste,"Avenida Cidade Jardim, 53 Jardim Europa, Itaim Bibi, São Paulo - SP, 01453-000, Brazil",-23.5786859,-46.6815131,Open ⋅ Closes 7 PM,"Feijoada served everyday. Besides its traditional & lean specialties, this eatery offers a variety of dishes in a casual spot.",https://lh5.googleusercontent.com/p/AF1QipOMh_qkLnFvPmiZetVCi8n5TaXD48R-ThXhRRah=w163-h92-k-no,1,1,1,1,1,1,1,11.0,16.5,100.0,100.0,0.0,15.0,65.0,0.0,manha,tarde,1,1,0,0,10.0
Restaurante Asia House,ChIJhfs_dalZzpQRwxP5_vUk5nc,4.5,820.0,1,japanese restaurant,Centro,"R. da Glória, 86 - Liberdade, São Paulo - SP, 01503-000, Brazil",-23.5539505,-46.6344393,Opens soon ⋅ 11:30 AM,"Informal Chinese & Japanese cuisine. This spot serves Chinese & Japanese weigh & pay fare in a laid-back, family-friendly setting.",https://lh5.googleusercontent.com/p/AF1QipPZ8CB3FN-nJ9Jh_QlWpVHW9DTAIyFLdn_bu-IC=w163-h92-k-no,0,1,1,1,1,1,1,11.5,15.5,100.0,66.7,0.0,7.0,51.0,0.0,manha,tarde,1,1,1,0,2.0
Restaurante São Paulo Express,ChIJicTSNihazpQRFuUy2Fp4VUA,4.2,33.0,5,restaurant,Sul,"R. Humberto I, 1070 - Vila Mariana, São Paulo - SP, 04018-033, Brazil",-23.5890578,-46.6396744,Open ⋅ Closes 3 PM,,https://lh5.googleusercontent.com/p/AF1QipMVWHFBGHxbvS3Idy9ZZpTsgvMtGvXY6KfkZD8W=w122-h92-k-no,0,1,1,1,1,1,1,11.0,15.0,100.0,66.7,0.0,15.0,43.0,0.0,manha,tarde,1,1,0,0,9.0
Det's,ChIJMaRh86VXzpQRj-xjIUJe4_Q,4.3,119.0,0,buffet restaurant,Oeste,"R. Costa Carvalho, 533 - Pinheiros, São Paulo - SP, 05429-130, Brazil",-23.5646999,-46.6991647,Closed ⋅ Opens 10:45 AM Mon,,https://lh5.googleusercontent.com/p/AF1QipN5dGkHZnW9UnK_EbFrd9jIvGuti_iBbZpH21GI=w122-h92-k-no,0,1,1,1,1,1,0,10.75,15.0,100.0,33.3,0.0,19.0,43.0,0.0,manha,tarde,1,1,0,0,6.0
Restaurante M&M,ChIJx1tK4aRlzpQRSYIMzogk75g,4.4,9.0,5,restaurant,Leste,"torre A, R. Augusto Carlos Bauman, 206 - apartamento 126 - Itaquera, São Paulo - SP, 08255-010, Brazil",-23.535013,-46.4511905,Open ⋅ Closes 12 AM,,https://lh5.googleusercontent.com/p/AF1QipM7bW0xnlrvwlP_ZBGpA2TLWq2MKYWZW7FVFAJH=w80-h142-k-no,1,1,1,1,1,1,1,10.0,24.0,100.0,100.0,0.0,32.0,100.0,85.0,manha,noite,0,1,0,0,7.0
Coco Bambu Osasco,ChIJqXw5Nfr_zpQRhLF4T2JH01E,4.8,21055.0,2,restaurant,Outro,"Av: Dos Autonomistas, 1828 - Vila Yara, Osasco - SP, 06020-010, Brazil",-23.5357347,-46.7712766,Opens soon ⋅ 11:30 AM,,,1,1,1,1,1,1,1,11.5,24.0,100.0,100.0,0.0,7.0,100.0,85.0,manha,noite,1,1,0,0,3.0
Quintal do Izi,ChIJq6ontqBXzpQRnNcv1srOl_A,4.4,439.0,5,restaurant,Oeste,"R. Teodoro Sampaio, 2793 - Pinheiros, São Paulo - SP, 05405-250, Brazil",-23.5676823,-46.6942765,Closed ⋅ Opens 7 AM Mon,,,0,1,1,1,1,1,0,19.0,11.0,100.0,33.3,0.0,0.0,0.0,85.0,noite,manha,1,1,0,0,3.0
Agello Cucina,ChIJGw3R6HdazpQR2GBaZdGv7RQ,4.6,1664.0,1,italian restaurant,Sul,"R. Sônia Ribeiro, 33 - Campo Belo, São Paulo - SP, 04620-020, Brazil",-23.6262143,-46.669618,Closed ⋅ Opens 12 PM,"A charming Italian cantina. Serving pasta & traditional Italian cuisine in a cozy, romantic setting.",,1,0,1,1,1,1,1,12.0,23.0,75.0,100.0,0.0,0.0,100.0,68.0,tarde,noite,1,1,0,0,4.0
Djapa Moema | Restaurante Japonês,ChIJmaIvAgNazpQR0z0yYoVBpaY,4.6,7666.0,2,japanese restaurant,Sul,"R. Gaivota, 168 - Moema, São Paulo - SP, 04522-030, Brazil",-23.5985187,-46.6630871,Opens soon ⋅ 11:30 AM,"A modern spot for oysters, sushi & sake. A traditional, upscale, all-you-can-eat Japanese restaurant with a wide selection of sake.",,1,1,1,1,1,1,1,12.0,15.0,100.0,100.0,0.0,0.0,43.0,0.0,tarde,tarde,1,1,0,0,8.0
Restaurante Dona Maya,ChIJ526RwgZ9zpQReIWMZvz6coc,4.3,508.0,0,restaurant,Outro,"Estr. de Santa Isabel, 6951 - Jardim Nascente, Itaquaquecetuba - SP, 08586-415, Brazil",-23.4356226,-46.3272521,Opens soon ⋅ 11:30 AM,,,0,1,1,1,1,1,1,11.5,15.0,100.0,66.7,0.0,7.0,43.0,0.0,manha,tarde,1,1,0,0,0.0
Urban Kitchen,ChIJyVVQiJRRzpQR_PHTpjV9R6M,4.7,488.0,5,restaurant,Sul,"Rua Gabrielle D'anunnzio, 1334, Rua Gabriele D'Annunzio, 1334 - Campo Belo, São Paulo - SP, 04619-004, Brazil",-23.6264041,-46.6719063,Open ⋅ Closes 11 PM,,,1,1,1,1,1,1,1,9.0,23.0,100.0,100.0,0.0,49.0,100.0,68.0,manha,noite,1,1,0,0,14.0
Costela & Cia,ChIJVXWztQRDzpQRDJlrroOItZE,4.7,2063.0,1,restaurant,Outro,"Av. Winston Churchill, 480 - Vila Caminho do Mar, São Bernardo do Campo - SP, 09613-000, Brazil",-23.6712017,-46.5637207,Opens soon ⋅ 11:30 AM,,,1,0,1,1,1,1,1,11.5,15.0,75.0,100.0,0.0,7.0,43.0,0.0,manha,tarde,1,1,0,0,14.0
Cena Restaurante,ChIJ5-HZeYdBzpQRiZXbTSH7ul8,4.6,1038.0,2,restaurant,Outro,"R. Dr. Fláquer, 571 - Centro, São Bernardo do Campo - SP, 09710-180, Brazil",-23.7087905,-46.5478091,Closed ⋅ Opens 12 PM,,,1,0,1,1,1,1,1,12.0,15.0,75.0,100.0,0.0,0.0,43.0,0.0,tarde,tarde,1,1,0,0,15.0
Trigoart Restaurante,ChIJ9QOMgJ9azpQRe9MQcUXf0gM,4.4,125.0,0,brazilian restaurant,Sul,"R. Dr. Djalma Pinheiro Franco, 985 - Jardim Prudência, São Paulo - SP, 04362-000, Brazil",-23.655197,-46.6682793,Open ⋅ Closes 6 PM,,,1,1,1,1,1,1,1,7.0,21.0,100.0,100.0,0.0,83.0,100.0,34.0,manha,noite,1,1,0,0,13.0
Peru's Sandubas,ChIJCzHKyyxZzpQRDIEmXRewBGI,4.5,1845.0,1,buffet restaurant,Leste,"R. Cajuru, 1164 - Belem, São Paulo - SP, 03057-000, Brazil",-23.5402177,-46.5936186,Open ⋅ Closes 5 PM,,,1,1,1,1,1,1,1,11.0,16.0,100.0,100.0,0.0,15.0,58.0,0.0,manha,tarde,1,1,0,0,0.0
Porta do Sol - Restaurante do Paquito,ChIJE2-mDH8DzpQRKj9D3grPSEc,4.7,1413.0,1,seafood restaurant,Outro,"Av. São Francisco, 210/212 - Centro, Santos - SP, 11013-202, Brazil",-23.9375947,-46.3259565,Opens soon ⋅ 11:45 AM,Ample seafood dishes in a roomy setting. Generous seafood grills & stews presented in airy environs with contemporary decor.,,1,0,1,1,1,1,1,11.75,16.0,75.0,100.0,0.0,3.0,58.0,0.0,manha,tarde,1,1,0,0,10.0
Fôrno,ChIJQa7iAElYzpQRb5OWe0n_1VY,4.5,5221.0,1,restaurant,Centro,"R. Cunha Horta, 70 - Consolação, São Paulo - SP, 01221-030, Brazil",-23.5461076,-46.6486365,Open ⋅ Closes 12 AM,"Rustic-chic spot for light mains. Pizza, pastrami sandwiches & pasta, plus famed coxinha chicken croquettes, in a hip, low-lit space.",,1,0,1,1,1,1,1,12.0,24.0,75.0,100.0,0.0,0.0,100.0,85.0,tarde,noite,1,1,0,0,2.0
Restaurante Jangada Santo André,ChIJeboeVl5DzpQR0dNQjRmAm-c,4.4,1541.0,5,seafood restaurant,Outro,"Av. Pereira Barreto, 42 - Paraíso, Santo André - SP, 09190-210, Brazil",-23.667704,-46.53375,Closed ⋅ Opens 12 PM,,,1,1,1,1,1,1,1,12.0,15.5,100.0,100.0,0.0,0.0,51.0,0.0,tarde,tarde,1,1,0,0,13.0
Umiguan Restaurante,ChIJk6oq82ZYzpQRswoYjV1ytDU,4.6,269.0,1,korean restaurant,Centro,"R. Newton Prado, 45 - Bom Retiro, São Paulo - SP, 01127-000, Brazil",-23.5272026,-46.6386859,Closed ⋅ Opens 12 pm,,https://lh5.googleusercontent.com/p/AF1QipOdDlrPPVACWHHB6KQC89hG6Hnu5bGnIXUbYZpc=w163-h92-k-no,1,1,1,1,1,1,1,12.0,14.0,100.0,100.0,0.0,0.0,29.0,0.0,tarde,tarde,1,1,0,0,5.0
Restaurante Prato Cheio,ChIJ-YUOABh2zpQRNT9enWRaKbg,4.5,26.0,5,restaurant,Outro,"Av. Japão, 5870 - Jardim Aeroporto II, Mogi das Cruzes - SP, 08743-540, Brazil",-23.57371,-46.2192908,Open ⋅ Closes 3 pm,,https://lh5.googleusercontent.com/p/AF1QipO0auXiDI7i8iC8VCeIEcqATQefeHSRUquLD0CS=w92-h92-k-no,0,1,1,1,1,1,1,11.0,15.0,100.0,66.7,0.0,15.0,43.0,0.0,manha,tarde,1,1,0,0,9.0
MIZUKEN RESTAURANTE JAPONÊS,ChIJ272BfFD1zpQR7fWMwtQnwfs,4.5,2321.0,1,japanese restaurant,Outro,"R. Tapajós, 124 - Jardim Barbosa, Guarulhos - SP, 07111-340, Brazil",-23.4649111,-46.5253389,Closed ⋅ Opens 12 pm,,https://lh5.googleusercontent.com/p/AF1QipO9rTWEbzZDaEvBsGS7uGzkOJvzEvS3rDp2jPSO=w138-h92-k-no,1,1,1,1,1,1,1,12.0,15.0,100.0,100.0,0.0,0.0,43.0,0.0,tarde,tarde,1,1,0,0,8.0
Restaurante Banzeiro SP,ChIJSReWN-BXzpQRnczEqxxpsFY,4.7,867.0,5,brazilian restaurant,Oeste,"Rua Tabapuã, 830 - Itaim Bibi, São Paulo - SP, 04533-003, Brazil",-23.5837344,-46.6786817,Closed ⋅ Opens 12 pm,"Trendy venue for dishes from the Amazon. Amazonian rice, river fish & meat dishes in a vividly decorated, industrial-style space.",https://lh5.googleusercontent.com/p/AF1QipM1WwplcFZ5K3wfPwiGvdaErsyhUt5H4TknK0RV=w122-h92-k-no,1,1,1,1,1,1,1,12.0,15.5,100.0,100.0,0.0,0.0,51.0,0.0,tarde,tarde,1,1,0,0,13.0
Restaurante Nina,ChIJYdY4ZvTXzZQRWgM5jbD_bY8,4.6,402.0,0,brazilian restaurant,Outro,"Av. Pref. Carlos Ferreira Lopes, 208 - Vila Mogilar, Mogi das Cruzes - SP, 08773-490, Brazil",-23.5046206,-46.193014,Open ⋅ Closes 3:30 pm,,https://lh5.googleusercontent.com/p/AF1QipP2MQdRgzgoDOPD_A969TZlRzKcWmO_ue8imhcr=w122-h92-k-no,0,1,1,1,1,1,1,7.0,15.0,100.0,66.7,0.0,83.0,43.0,0.0,manha,tarde,1,1,0,0,11.0
Restaurante e Churrascaria 25,ChIJt4L_q_hYzpQRGCLEl3Q5f6U,4.4,245.0,5,buffet restaurant,Centro,"R. Comendador Abdo Schahin, 238 - Centro Histórico de São Paulo, São Paulo - SP, 01023-050, Brazil",-23.5421518,-46.6316219,Open ⋅ Closes 3 pm,,https://lh5.googleusercontent.com/p/AF1QipP5Elq0LGTZ8BTWwJcv81go216m4rijWoDIgjwC=w122-h92-k-no,0,1,1,1,1,1,1,11.0,15.0,100.0,66.7,0.0,15.0,43.0,0.0,manha,tarde,1,1,0,0,9.0
Ponto Chic,ChIJw8A9BFFYzpQRyf3Mmt8uwq4,4.4,3111.0,1,brazilian restaurant,Centro,"Lg. do Paissandú, 27 - Centro Histórico de São Paulo, São Paulo - SP, 01034-010, Brazil",-23.5428814,-46.6388295,Closed ⋅ Opens 12 pm,"Traditional bar with the original bauru. Traditional bar, birthplace of the bauru sandwich, serving hearty meals & hosting events.",https://lh5.googleusercontent.com/p/AF1QipMcF-ij7ZkLim7zJWOLiEPxe8KB0_83I-TWrW7q=w122-h92-k-no,0,1,1,1,1,1,1,12.0,20.0,100.0,66.7,0.0,0.0,100.0,17.0,tarde,noite,1,1,0,0,9.0
Fonte Leone,ChIJRx3ClMdWzpQRW8n_1_Lphm8,4.6,1963.0,2,italian restaurant,Outro,"R. das Figueiras, 1050 - Jardim, Santo André - SP, 09080-300, Brazil",-23.6481681,-46.5400963,Opens soon ⋅ 11:30 am,,https://lh5.googleusercontent.com/p/AF1QipNrvQ72SVAZEzS1gIfUFXIJddW1Jrs7OSnvJurS=w137-h92-k-no,1,1,1,1,1,1,1,11.5,23.5,100.0,100.0,0.0,7.0,100.0,76.0,manha,noite,1,1,0,0,8.0
La Tambouille,ChIJX5TN42hXzpQRBeNZ59YSKNE,4.7,769.0,4,restaurant,Oeste,"Av. Nove de Julho, 5925 - Itaim Bibi, São Paulo - SP, 04536-040, Brazil",-23.5809642,-46.6816689,Closed ⋅ Opens 12 pm,"French & Italian haute cuisine. Renowned chef leads this elegant restaurant serving seafood, meat, pasta & poultry.",https://lh5.googleusercontent.com/p/AF1QipM0BdheKfiDvLWOTUK5dMAQ_3yJ8lSQ3Ot21ZuB=w122-h92-k-no,1,0,1,1,1,1,1,12.0,15.0,75.0,100.0,0.0,0.0,43.0,0.0,tarde,tarde,1,1,0,0,9.0
Restaurante Chic Chopp III,ChIJPcPs0lQQyZQRf1Ql9KEBODE,4.5,1574.0,1,buffet restaurant,Outro,"R. Rio de Janeiro, 403 - Vila Beatriz, Águas de Lindóia - SP, 13940-000, Brazil",-22.4773056,-46.632006,Open ⋅ Closes 11 pm,"Relaxed eatery for comfort food dishes. Casual restaurant & bar featuring pasta & hearty meat plates, plus salads, sides & sweet treats.",https://lh5.googleusercontent.com/p/AF1QipMtYl1QD1mjGGA0I_2XvC85bbm91IoTTUmOa4vY=w80-h106-k-no,1,1,1,1,1,1,1,11.0,23.0,100.0,100.0,0.0,15.0,100.0,68.0,manha,noite,1,1,0,0,2.0
Frango Chic,ChIJMX0Nd4jfmwARmxVWsfSggPs,4.4,4617.0,1,barbecue restaurant,Outro,"R. Figueiredo Camargo, 331 - Bangu, Rio de Janeiro - RJ, 21875-020, Brazil",-22.8715926,-43.4550227,Open ⋅ Closes 12 am,"Open-air, family-friendly restaurant. Casual eatery known for its fried chicken with fries & beer with many other dishes on offer.",https://lh5.googleusercontent.com/p/AF1QipNSS03npCrn-1hwUwy78HkYEzDXPpW_NnUqVDSV=w122-h92-k-no,1,1,1,1,1,1,1,9.0,24.0,100.0,100.0,0.0,49.0,100.0,85.0,manha,noite,1,1,0,0,11.0
Coco Bambu Anhembi,ChIJq6oGJ-H3zpQRezSvQ3j94Lw,4.7,25951.0,2,seafood restaurant,Norte,"Av. Braz Leme, 201 - Casa Verde, São Paulo - SP, 02511-000, Brazil",-23.5127429,-46.6537506,Open ⋅ Closes 12 am,,https://lh5.googleusercontent.com/p/AF1QipOVhM3N5v4l5OESsiz8pHX3e2kCuwS-nVt6CSbl=w122-h92-k-no,1,1,1,1,1,1,1,11.0,24.0,100.0,100.0,0.0,15.0,100.0,85.0,manha,noite,1,1,0,0,1.0
Nonnetto Ristorante,ChIJjScwFkT1zpQR9IoSNwF5VTc,4.6,455.0,2,italian restaurant,Outro,"R. Josephina Mandotti, 274 - Jardim Maia, Guarulhos - SP, 07115-080, Brazil",-23.460364,-46.52953,Closed ⋅ Opens 12 pm,,https://lh5.googleusercontent.com/p/AF1QipPQc2is16a2NfFj98Hyzr6k91gbzJy_IXJAsA1t=w132-h92-k-no,1,0,1,1,1,1,1,12.0,15.5,75.0,100.0,0.0,0.0,51.0,0.0,tarde,tarde,1,1,0,0,2.0
Casa do Norte Chique,ChIJwel_9pxdzpQRmMcgiLb9tZk,4.2,2510.0,1,fast food restaurant,Leste,"Av. da Barreira Grande, 687 - Jardim Galli, São Paulo - SP, 03386-000, Brazil",-23.5842085,-46.5281626,Open ⋅ Closes 10 pm,,https://lh5.googleusercontent.com/p/AF1QipPaofMH6exIoGyp6Yu6LQ4YqhF2nbqB77kw6DxT=w163-h92-k-no,1,1,1,1,1,1,1,8.0,22.0,100.0,100.0,0.0,66.0,100.0,51.0,manha,noite,1,1,0,0,14.0
Ponto Chic Perdizes,ChIJlz-f8BpYzpQRRuDF8CBSnAE,4.4,5374.0,1,brazilian restaurant,Oeste,"L. Padre Péricles, 139 - Perdizes, São Paulo - SP, 01156-040, Brazil",-23.5315328,-46.6636827,Opens soon ⋅ 11:30 am,"Fast food, sandwiches & a bar. Weigh & pay buffet founded in 1978, with lunch, sandwiches & beer in a simple 2-storey dining area.",https://lh5.googleusercontent.com/p/AF1QipMaovccBFsYyCvUiysorwPyJomn4cAKA7yquoVh=w122-h92-k-no,1,1,1,1,1,1,1,11.5,24.0,100.0,100.0,0.0,7.0,100.0,85.0,manha,noite,1,1,0,0,3.0
Ponto Chic Paraíso,ChIJa0t8x49XzpQRD14YlFxwq7g,4.3,6324.0,1,bar,Sul,"Praça Oswaldo Cruz, 26 - Paraíso, São Paulo - SP, 04004-070, Brazil",-23.5715186,-46.6436059,Closed ⋅ Opens 12 pm,"Classic diner in São Paulo. Diner famous for creating Bauru sandwich, serving sandwiches, juices, shakes & other dishes.",https://lh5.googleusercontent.com/p/AF1QipNtkAG9gvVFgWYBqiE5uVNDqr75UzqSFCpcgD8=w138-h92-k-no,1,1,1,1,1,1,1,12.0,24.0,100.0,100.0,0.0,0.0,100.0,85.0,tarde,noite,1,1,0,0,4.0
Nordeste Chic,ChIJu-gx2e9hmQARCfg2LKfBVmM,4.3,16.0,5,restaurant,Outro,"R. Barra do Corda - Bangu, Rio de Janeiro - RJ, 21875-240, Brazil",-22.8698515,-43.452223,Open ⋅ Closes 3 pm ⋅ Reopens 7 pm,,https://lh5.googleusercontent.com/p/AF1QipP1tUtq0N8PWbyYp6b5uuc25s9hBRLhBZyI8kil=w80-h106-k-no,1,0,0,1,1,1,1,10.0,15.0,50.0,100.0,0.0,32.0,43.0,0.0,manha,tarde,1,1,0,0,11.0
Restaurante Lilló,ChIJQaA7JiJazpQRJiXU_qDLdJ0,4.5,2568.0,1,restaurant,Sul,"R. Borges Lagoa, 1321 - Vila Clementino, São Paulo - SP, 04038-034, Brazil",-23.5966367,-46.6496068,Closed ⋅ Opens 12 pm,"An elegant Brazilian restaurant. Various pastas, meats & fish with a Brazilian touch, served in an elegant setting.",https://lh5.googleusercontent.com/p/AF1QipOVriPUQwNs5fQTndxIzrMP4WELZW4gEmnEN5uD=w122-h92-k-no,1,0,1,1,1,1,1,12.0,15.0,75.0,100.0,0.0,0.0,43.0,0.0,tarde,tarde,1,1,0,0,15.0
Terraço Itália,ChIJz36TCeJZzpQR4vkgCNah0Dw,4.6,10560.0,4,italian restaurant,Centro,"Av. Ipiranga, 344 - 41º andar - República, São Paulo - SP, 01046-010, Brazil",-23.5455222,-46.6437389,Closed ⋅ Opens 12 pm,"A classic Italian restaurant with a view. An upscale, candlelit Italian restaurant with a piano & wonderful view of the city.",https://lh5.googleusercontent.com/p/AF1QipMbqTKrLtHf-9Soj8vUXT_9Gw7GmSsefteX8B5-=w80-h106-k-no,1,1,1,1,1,1,1,12.0,1.0,100.0,100.0,0.0,0.0,100.0,85.0,tarde,madrugada,1,0,0,0,1.0
Praça São Lourenço,ChIJF4g6k0xYzpQRt-eBJ-ets84,4.6,4860.0,2,restaurant,Oeste,"R. Casa do Ator, 608 - Itaim Bibi, São Paulo - SP, 04546-002, Brazil",-23.5984485,-46.6790978,Closed ⋅ Opens 12 pm,Upscale restaurant in a natural setting. Contemporary international cuisine in a building with landscaped outdoor areas & a children's club.,https://lh5.googleusercontent.com/p/AF1QipMQAcWEQOYaQNu3qS8sfvb21TP0cCX7P4Jak1vK=w122-h92-k-no,1,0,1,1,1,1,1,12.0,15.0,75.0,100.0,0.0,0.0,43.0,0.0,tarde,tarde,1,1,1,0,15.0
Josephine Restaurante,ChIJWZPI3VdXzpQR_CepIUcb0to,4.5,1761.0,2,brazilian restaurant,Sul,"R. Jacques Félix, 253 - Vila Nova Conceição, São Paulo - SP, 04509-000, Brazil",-23.5904605,-46.6707187,Closed ⋅ Opens 12 pm,Contemporary Brazilian cuisine. This spacious restaurant with balconies & cozy decor offers a menu of contemporary Brazilian food.,https://lh5.googleusercontent.com/p/AF1QipMGXBeG5INm0NF2N0yz2sy8zpbfnXy5rIwgBFYh=w122-h92-k-no,1,1,1,1,1,1,1,11.5,24.0,100.0,100.0,0.0,7.0,100.0,85.0,manha,noite,1,1,0,0,3.0
Moema Chic,ChIJTygCU5_1zpQRJCxxsiXSTqM,4.3,1565.0,1,bar,Sul,"Praça Nossa Sra. Aparecida, 113 - Moema, São Paulo - SP, 04075-010, Brazil",-23.6030827,-46.6602769,Open ⋅ Closes 12 am,"A modest bar & diner. An informal no-frills bar & diner serving appetizers, fruit juices & beer.",https://lh5.googleusercontent.com/p/AF1QipNGbrsbi2kfZaYf5cPLswKg4cnM_VDqcUHnXyA=w91-h92-k-no,1,1,1,1,1,1,1,5.5,24.0,100.0,100.0,8.0,100.0,100.0,85.0,madrugada,noite,1,1,0,0,14.0
D'autore Restaurante,ChIJpWMvtFbPyJQROBgvdL4VMaI,4.6,956.0,5,restaurant,Outro,"R. dos Bandeirantes, 313 - Cambuí, Campinas - SP, 13024-010, Brazil",-22.892301,-47.05241,Closed ⋅ Opens 12 pm,,https://lh5.googleusercontent.com/p/AF1QipO6OLu31i_HhLkbt4LbogRTIZR-5u2t_jvAoOOH=w163-h92-k-no,1,0,1,1,1,1,1,12.0,15.0,75.0,100.0,0.0,0.0,43.0,0.0,tarde,tarde,1,1,1,0,9.0
Loup Restaurant,ChIJv5CU_kFXzpQRAD-4fc89qPA,4.6,695.0,2,restaurant,Oeste,"R. Dr. Mário Ferraz, 528 - Itaim Bibi, São Paulo - SP, 01453-011, Brazil",-23.5850694,-46.6854471,Closed ⋅ Opens 1 pm,"Fashionable spot for global eats & wine. Upscale international plates paired with wine in a chic, light-filled space with a vertical garden.",https://lh5.googleusercontent.com/p/AF1QipO9s41ToMaNvUaASyr4Z-klvslV2nU1v9EnmQvO=w123-h92-k-no,1,1,1,1,1,1,1,12.0,15.0,100.0,100.0,0.0,0.0,43.0,0.0,tarde,tarde,1,1,0,0,2.0
Restaurante Catalina,ChIJq6r-cw8DzpQRAYqmeLgqpCI,4.6,919.0,5,restaurant,Outro,"R. José Caballero, 36 - Gonzaga, Santos - SP, 11055-300, Brazil",-23.9643179,-46.3309701,Closed ⋅ Opens 12 pm,,https://lh5.googleusercontent.com/p/AF1QipMwCCmrXrNHEDeW86QwyyH3BWlEQo5L6pyfSHoj=w137-h92-k-no,1,0,1,1,1,1,1,12.0,15.0,75.0,100.0,0.0,0.0,43.0,0.0,tarde,tarde,1,1,0,0,9.0
La Varenne,ChIJn_vck47j3JQRAp0-oujzOFg,4.6,507.0,5,french restaurant,Outro,"Av. do Batel, 1868 - Loja 405 - Batel, Curitiba - PR, 80420-090, Brazil",-25.4428904,-49.2916267,Closed ⋅ Opens 12 pm,"French cuisine in an elegant setting. Upscale, award-winning French bistro serving pasta, risotto & seafood dishes with a Brazilian twist.",https://lh5.googleusercontent.com/p/AF1QipNdQxJsXwd9Zc0UxITIq9lwNrvWILHxQlnk9TKg=w80-h120-k-no,1,1,1,1,1,1,1,12.0,16.0,100.0,100.0,0.0,0.0,58.0,0.0,tarde,tarde,1,0,0,0,1.0
Lellis Trattoria - Curitiba,ChIJtzPt_47j3JQRAUmR8xhZOdA,4.6,3260.0,2,italian restaurant,Outro,"R. Gonçalves Dias, 51 - Batel, Curitiba - PR, 80240-340, Brazil",-25.4449589,-49.29155,Opens soon ⋅ 11:30 am,"A traditional spot for Italian cuisine. Traditional Italian cantina serving risotto, stuffed pasta, filetto alla milanesa & more since 1981.",https://lh5.googleusercontent.com/p/AF1QipP23AY6AO9SlBXRMNaFchLcBVF1CDBdcLAmYoEg=w137-h92-k-no,1,1,1,1,1,1,1,11.5,16.0,100.0,100.0,0.0,7.0,58.0,0.0,manha,tarde,1,1,0,0,2.0
Base Steakhouse,ChIJ78fhdpCKzpQRRYzvCqiKt0g,4.6,160.0,5,restaurant,Outro,"Rod. Hélio Smidt, s/n - Cumbica, Guarulhos - SP, 07190-100, Brazil",-23.4502321,-46.4889862,Closed ⋅ Opens 12:30 pm,,https://lh5.googleusercontent.com/p/AF1QipO81em251jqzN8h2W2tRNJhjT0gr1MxusFMYjWl=w122-h92-k-no,1,1,1,1,1,1,1,12.0,15.0,100.0,100.0,0.0,0.0,43.0,0.0,tarde,tarde,1,0,0,0,14.0
ICI Bistro,ChIJbzGqHDFYzpQR2Kw1Tf1PtzM,4.5,1020.0,2,french restaurant,Centro,"R. Mato Grosso, 396 - Consolação, São Paulo - SP, 01239-040, Brazil",-23.5504421,-46.6592171,Closed ⋅ Opens 12 pm,Upscale & modern French haute cuisine. This bistro serves French food & appetizers with a contemporary twist in a quiet & chic setting.,https://lh5.googleusercontent.com/p/AF1QipN7iLzyZbprVUKc8TQ_vFNcXXT64p6aJ0EG1x6E=w80-h106-k-no,1,1,1,1,1,1,1,12.0,15.0,100.0,100.0,0.0,0.0,43.0,0.0,tarde,tarde,1,1,0,0,8.0
Chef Rouge,ChIJP-UPbzRYzpQRdxqmmSZbSY4,4.6,579.0,5,french restaurant,Oeste,"R. Bela Cintra, 2238 - Jardim Paulista, São Paulo - SP, 01415-002, Brazil",-23.5636577,-46.6697645,Closed ⋅ Opens 12 pm,"Modern French menu in a classic spot. A modern French menu, including shrimp casserole & other meat dishes, served in a classic setting.",https://lh5.googleusercontent.com/p/AF1QipMJQOFBeRzFGrS3nBo6gj1YTxVyzEJyemu87lFV=w92-h92-k-no,1,0,1,1,1,1,1,12.0,15.5,75.0,100.0,0.0,0.0,51.0,0.0,tarde,tarde,1,0,1,0,0.0
Nico Pasta & Basta,ChIJb3DBGe9bzpQRIXK1vMiJCgY,4.6,3588.0,2,restaurant,Sul,"Rua Costa Aguiar, 1586 - Ipiranga, São Paulo - SP, 04204-001, Brazil",-23.5880113,-46.6064134,Closed ⋅ Opens 12 pm,"An elegant spot for Italian cuisine. A classic, elegant, Italian restaurant & wine cellar with colorful décor & art on the wall.",https://lh5.googleusercontent.com/p/AF1QipPvSWgusXZPFhR0p5WiNIEqpZnff-TSqKpF3tkx=w122-h92-k-no,1,0,1,1,1,1,1,12.0,15.0,75.0,100.0,0.0,0.0,43.0,0.0,tarde,tarde,1,1,0,0,15.0
Outback Steakhouse,ChIJJe5aAvhbzpQRG--n0g6O0hU,4.6,7061.0,2,restaurant,Leste,"R. Cap. Pacheco e Chaves, 313 - Mooca, São Paulo - SP, 03126-000, Brazil",-23.5787464,-46.5952173,Opens soon ⋅ 11:30 am,"An Australian-style BBQ chain. A casual, Australian-style BBQ chain that serves mixed grills, appetizers & blooming onions.",https://lh5.googleusercontent.com/p/AF1QipM8EmknV1jBDbQsXA0vBqXscH6dqM7AzpuNzb6q=w171-h92-k-no,1,1,1,1,1,1,1,12.0,23.5,100.0,100.0,0.0,0.0,100.0,76.0,tarde,noite,1,1,0,0,13.0
Restaurante Neto,ChIJMSQ2sEFRzpQRTPlxQHw7bxQ,4.7,176.0,5,restaurant,Sul,"Av. das Nações Unidas, 14401 - Chácara Santo Antônio (Zona Sul), São Paulo - SP, 04794-000, Brazil",-23.6252786,-46.706819,Closed ⋅ Opens 12:30 pm,,https://lh5.googleusercontent.com/p/AF1QipOrqJAub8biP8dsriao2rYkbMobJ3qir2tG1LkC=w122-h92-k-no,1,1,1,1,1,1,1,18.5,10.5,100.0,100.0,0.0,0.0,6.0,85.0,tarde,manha,1,0,0,0,14.0
Saint Peter Restaurante,ChIJ6zbQyyoZ35QRsn9HXi1ix1w,4.7,3189.0,1,buffet restaurant,Outro,"R. Benjamin Constant, 2469 - Vila Nova, Blumenau - SC, 89035-100, Brazil",-26.9039398,-49.0935871,Open ⋅ Closes 2:30 pm,,https://lh5.googleusercontent.com/p/AF1QipMuNGsoIui4uIE43-jubEa-dYibDHduoB4LsFsc=w122-h92-k-no,0,0,1,1,1,1,1,11.0,14.5,75.0,66.7,0.0,15.0,36.0,0.0,manha,tarde,1,1,0,0,5.0
Olea Mozzarella Bar,ChIJH5Va0nlXzpQR2ObHRfI06xI,4.5,1026.0,1,italian restaurant,Oeste,"R. Joaquim Antunes, 198 - Pinheiros, São Paulo - SP, 05415-000, Brazil",-23.5663074,-46.6795072,Closed ⋅ Opens 12 pm,"Italian-style eatery. Rustic & elegant location full of plants, serving Italian food, pizzas & drinks.",https://lh5.googleusercontent.com/p/AF1QipNfY4Y_bH8xIM4jTfUiJAvpgHQdPQQvWYedlm8B=w163-h92-k-no,1,1,1,1,1,1,1,12.0,15.0,100.0,100.0,0.0,0.0,43.0,0.0,tarde,tarde,1,1,0,0,8.0
Restaurante Bellé,ChIJk53J9_PL2JQRORVNSJY8w8Q,4.7,442.0,1,buffet restaurant,Outro,"Av. Sete de Setembro, 1307 - Fazenda, Itajaí - SC, 88301-205, Brazil",-26.917536,-48.654651,Open ⋅ Closes 2 pm,,https://lh5.googleusercontent.com/p/AF1QipNy-yrMRc9diZk9C4RWDdE-CaOPtExywoNHJWrw=w80-h142-k-no,0,1,1,1,1,0,1,11.0,14.0,100.0,33.3,0.0,15.0,29.0,0.0,manha,tarde,1,1,0,0,12.0
Macarronada Italiana,ChIJuWw_My3PyJQRXiQjcjwoGx0,4.5,6625.0,1,italian restaurant,Outro,"Av. Marechal Carmona, 738 - Vila Joao Jorge, Campinas - SP, 13041-311, Brazil",-22.9199476,-47.0585163,Open ⋅ Closes 3 pm ⋅ Reopens 6 pm,,https://lh5.googleusercontent.com/p/AF1QipO-n8KOTyhpuYTgyoYU9PQc7VQxJNMsxlbnN8pj=w122-h92-k-no,1,0,1,1,1,1,1,11.0,15.0,75.0,100.0,0.0,15.0,43.0,0.0,manha,tarde,1,1,0,0,15.0
O Italiano Restaurante,ChIJMeJf3xq9pgAR_XIq15X8UlI,4.6,1913.0,2,italian restaurant,Outro,"R. São Vicente, 155 - Olhos D'Água, Belo Horizonte - MG, 30390-570, Brazil",-19.9902293,-43.960368,Closed ⋅ Opens 12 pm,,https://lh5.googleusercontent.com/p/AF1QipOSc-AyXYHVlT0UjzgakUprXPEoHOvh0NPKFw78=w80-h106-k-no,1,0,1,1,1,1,1,12.0,15.5,75.0,100.0,0.0,0.0,51.0,0.0,tarde,tarde,1,1,0,0,2.0
D.O.M.,ChIJ_Qdn5dZZzpQRWJ5lDWdVmSY,4.6,1539.0,4,restaurant,Oeste,"R. Barão de Capanema, 549 - Jardins, São Paulo - SP, 01411-011, Brazil",-23.56632,-46.66745,Closed ⋅ Opens 7 pm,"Haute cuisine from a renowned chef. Haute cuisine from world-renowned chef Alex Atala, reviving dishes with innovative ingredients.",https://lh5.googleusercontent.com/p/AF1QipML7y11_0JHo1BUwmyXbK6MXxikPCfYM5mfiLEF=w122-h92-k-no,0,1,1,1,1,1,1,12.0,15.0,100.0,66.7,0.0,0.0,43.0,0.0,tarde,tarde,1,0,1,0,4.0
Osteria Nonna Rosa,ChIJAVpUeQxZzpQR0ebg-yitws4,4.6,532.0,5,italian restaurant,Oeste,"R. Padre João Manuel, 950 - Jardins, São Paulo - SP, 01411-000, Brazil",-23.5651347,-46.6659178,Closed ⋅ Opens 12 pm,,https://lh5.googleusercontent.com/p/AF1QipPqdL3HfyxZUsMTOPQorGJJbJo77LwZ9gEUDVM=w122-h92-k-no,1,1,1,1,1,1,1,12.0,16.0,100.0,100.0,0.0,0.0,58.0,0.0,tarde,tarde,1,1,0,0,1.0
Restaurante Kitchin,ChIJ5zcZVEdXzpQRQT0a7CLIh0U,4.6,719.0,2,japanese restaurant,Oeste,"Av. Pres. Juscelino Kubitschek, 2041 - Vila Nova Conceição, São Paulo - SP, 04543-011, Brazil",-23.5908421,-46.6898659,Opens soon ⋅ 11:45 am,,https://lh5.googleusercontent.com/p/AF1QipOzrE2Ln21ikou187yb9LikkDeGeI-od1WJyKPx=w122-h92-k-no,1,1,1,1,1,1,1,11.75,15.5,100.0,100.0,0.0,3.0,51.0,0.0,manha,tarde,1,1,0,0,2.0
Honra Restaurant,ChIJtbAMutDQ7JQRAtEcqAMIU4I,4.5,316.0,2,restaurant,Outro,"Átrium Centro Empresarial, Av. Advogado Horácio Raccanello Filho, 4660 - Zona 7, Maringá - PR, 85030-405, Brazil",-23.4189091,-51.9272751,Closed ⋅ Opens 11 AM Mon,,https://lh5.googleusercontent.com/p/AF1QipOIaCOYwYtLGct8-0LhpF3xsvyzbPKzmof7RPj_=w122-h92-k-no,0,1,1,1,1,1,0,11.0,14.5,100.0,33.3,0.0,15.0,36.0,0.0,manha,tarde,1,1,0,0,6.0
Bobardí,ChIJ050Ozyjk3JQRuwiwNz-6s14,4.4,1365.0,2,restaurant,Outro,"Av. Munhoz da Rocha, 757 - Cabral, Curitiba - PR, 80035-000, Brazil",-25.4089332,-49.2521021,Closed ⋅ Opens 12 PM,,https://lh5.googleusercontent.com/p/AF1QipPFpB-N8lPuELptjN4IjLCNTbJ_OY9bClUVn9V7=w80-h106-k-no,1,1,1,1,1,1,1,11.5,14.416666666666666,100.0,100.0,0.0,7.0,35.0,0.0,manha,tarde,1,1,1,0,5.0
Zazá Bistrô Tropical,ChIJe3Hs4ATVmwARsLPcaC--ux8,4.5,1820.0,2,french restaurant,Outro,"R. Joana Angélica, 40 - Ipanema, Rio de Janeiro - RJ, 22420-030, Brazil",-22.985451,-43.204904,Closed ⋅ Opens 12 PM,"Contemporary Moroccan food. A bright mansion with a laid-back & eclectic vibe that serves Moroccan & Asian fare, plus cocktails.",https://lh5.googleusercontent.com/p/AF1QipMalXcLA_nFS4jTLkeg3WX1W0tqwgbCuiHP2Gek=w122-h92-k-no,1,1,1,1,1,1,1,12.0,24.0,100.0,100.0,0.0,0.0,100.0,85.0,tarde,noite,1,1,1,0,4.0
Banana Verde Restaurant,ChIJL5q_pZdXzpQRTUa5vyc5d_Q,4.6,2233.0,2,health food restaurant,Oeste,"Rua Harmonia, 278 - Vila Madalena, São Paulo - SP, 05435-000, Brazil",-23.5554785,-46.687619,Closed ⋅ Opens 12 PM,Gourmet natural food. Grains & natural ingredients infused in sophisticated vegetarian dishes created by a talented chef.,https://lh5.googleusercontent.com/p/AF1QipO8PVrCgoY_pYF5cTUqMyW28CJBJQ819ffqR-up=w137-h92-k-no,1,1,1,1,1,1,1,12.0,22.0,100.0,100.0,0.0,0.0,100.0,51.0,tarde,noite,1,1,0,0,15.0
Restaurante Pérgula,ChIJjZJPDlTVmwARJnson9A3CG4,4.7,665.0,3,restaurant,Outro,"Av. Atlântica, 1702 - Copacabana, Rio de Janeiro - RJ, 22021-001, Brazil",-22.9672709,-43.1788983,Closed ⋅ Opens 6 PM,"Gourmet food in an elegant setting. Sophisticated eatery in the Copacabana Palace with light, cosmopolitan fare & Sunday brunch.",https://lh5.googleusercontent.com/p/AF1QipPZtRg57magfOQPW3OXFhcOJF6hn2OYxuwRT6_F=w122-h92-k-no,1,1,1,1,1,1,1,18.5,10.5,100.0,100.0,0.0,0.0,6.0,85.0,tarde,manha,1,0,0,0,14.0
La Villa Restaurante Rio de janeiro,ChIJ72rPsfx_mQARt0zL7AMz0OY,4.3,715.0,2,french restaurant,Outro,"R. Álvaro Ramos, 408 - Botafogo, Rio de Janeiro - RJ, 22280-110, Brazil",-22.9573306,-43.1840667,Closed ⋅ Opens 12 PM,"French cuisine with a Rio flair. A cool, cozy & sophisticated French bistro with a colorful outdoor lounge area.",https://lh5.googleusercontent.com/p/AF1QipOnP00Wnp68r6TiDd1y9HwFFMgZzMeU_wp-bA2c=w138-h92-k-no,1,0,1,1,1,1,1,12.0,23.916666666666668,75.0,100.0,0.0,0.0,100.0,83.0,tarde,noite,1,1,0,0,2.0
Na Moita Grill Churrascaria,ChIJqfX1U9Qe35QRDvpdHhKVQPA,4.4,1551.0,1,barbecue restaurant,Outro,"R. Joinville, 365 - Vila Nova, Blumenau - SC, 89035-200, Brazil",-26.9067227,-49.084171,,,https://lh5.googleusercontent.com/p/AF1QipMeAVTFdZg56Yhml25nSh3nZkhytZ9EIw_JRJ9W=w163-h92-k-no,1,1,1,1,1,1,1,,,100.0,100.0,0.0,0.0,0.0,0.0,,,1,1,0,0,
Enosteria Vino e Cucina,ChIJBx3XaxNXzpQRQnKb57xyDEY,4.7,313.0,5,restaurant,Sul,"R. Jacques Félix, 626A - Vila Nova Conceição, São Paulo - SP, 04509-002, Brazil",-23.5938708,-46.671865,Closed ⋅ Opens 12 PM,,https://lh5.googleusercontent.com/p/AF1QipOB5FFVmQU5oHHjmgEh_ROax2EhmBFLPghj5qd2=w138-h92-k-no,1,0,1,1,1,1,1,12.0,16.0,75.0,100.0,0.0,0.0,58.0,0.0,tarde,tarde,1,1,0,0,8.0
Gaucho Mallet Grill,ChIJl9cmu64dzpQRIYAxRQqauf0,4.6,3672.0,1,barbecue restaurant,Outro,"Av. Mal. Mallet, 1180 - Canto do Forte, Praia Grande - SP, 11700-400, Brazil",-24.0068882,-46.4064358,Open ⋅ Closes 12 AM,"Simple stop for grilled meats & sides. Grilled meats & skewers, plus rice, sides & salad, at an unfussy dining room with a covered terrace.",https://lh5.googleusercontent.com/p/AF1QipN4IgmT3Wbf_7b6fmWPFpUb9LDQ-PmodH8FZXKT=w163-h92-k-no,1,1,1,1,1,1,1,11.0,24.0,100.0,100.0,0.0,15.0,100.0,85.0,manha,noite,1,1,0,0,1.0
Mimo Restaurante,ChIJe5d1ZMJZzpQRDBPnvPrY0DY,4.4,1161.0,1,restaurant,Oeste,"R. Caconde, 118 - Jardim Paulista, São Paulo - SP, 01425-010, Brazil",-23.5746072,-46.6581437,Closed ⋅ Opens 12 PM,"A charming contemporary restaurant. Elegant, contemporary cuisine served in a charming, modern setting.",https://lh5.googleusercontent.com/p/AF1QipNd4wTmGYCHgWO4L47OQ3Ts5Y5hziCFN5EMMNSW=w80-h106-k-no,0,0,1,1,1,1,1,12.0,16.0,75.0,66.7,0.0,0.0,58.0,0.0,tarde,tarde,1,1,1,0,5.0
Bistrô Charlô,ChIJO_UYIddZzpQRQVkwf6sCJVc,4.5,315.0,5,restaurant,Oeste,"R. Barão de Capanema, 450 - Cerqueira César, São Paulo - SP, 01411-011, Brazil",-23.5666543,-46.6666376,Closed ⋅ Opens 12 PM,"A French bistro-restaurant. A sophisticated spot for French cuisine, from classic to bold, for lunch, dinner, or kosher events.",https://lh5.googleusercontent.com/p/AF1QipO7bQhPPdTPRMNwXLd6Djd3ONDIGwokOQQINIFG=w204-h92-k-no,1,1,1,1,1,1,1,12.0,23.5,100.0,100.0,0.0,0.0,100.0,76.0,tarde,noite,1,1,0,0,13.0
Restaurante Contos de Réis,ChIJaZP3ih8LpAARxu-bFgePUy0,4.5,2222.0,1,brazilian restaurant,Outro,"R. Camillo de Brito, 21 - Ouro Preto, MG, 35400-000, Brazil",-20.3835417,-43.5031139,Opens soon ⋅ 11:30 AM,Rustic spot for classic fare & desserts. Traditional dishes & homemade desserts are offered in this rustic venue set in a historic building.,https://lh5.googleusercontent.com/p/AF1QipM2qTgrlDN6Z0SgBxtIvQ892mM-udxLczW9mIPR=w134-h92-k-no,1,1,1,1,1,1,1,11.5,22.5,100.0,100.0,0.0,7.0,100.0,59.0,manha,noite,1,1,0,0,13.0
Café Journal,ChIJ85TN9BFazpQRi_sXK84nr6k,4.5,2337.0,2,restaurant,Sul,"Alameda dos Anapurus, 1121 - Indianópolis, São Paulo - SP, 04087-003, Brazil",-23.6089592,-46.6594998,Closed ⋅ Opens 12 PM,"Bar & upscale contemporary cuisine. An elegant, upscale spot with wine cellar serving contemporary Brazilian dishes.",https://lh5.googleusercontent.com/p/AF1QipN8yE2KLU7WHnTM8MLg4D_byFwp9bLkhutKUrYz=w92-h92-k-no,1,1,1,1,1,1,1,12.0,24.0,100.0,100.0,0.0,0.0,100.0,85.0,tarde,noite,1,1,0,0,4.0
Don Mariano,ChIJ7TA96cJQzpQRgbxpzHnOl04,4.4,383.0,5,restaurant,Sul,"R. Chafic Maluf, 215 - Santo Amaro, São Paulo - SP, 04710-160, Brazil",-23.6258027,-46.6980727,Opens soon ⋅ 11:30 AM,,https://lh5.googleusercontent.com/p/AF1QipMtP5f5Di78lotnDAZNbbAcMdgR2XCIDJVfRNR-=w143-h92-k-no,0,1,1,1,1,1,1,11.5,15.0,100.0,66.7,0.0,7.0,43.0,0.0,manha,tarde,1,1,1,0,2.0
D'Heaven,ChIJ719_w5zbmwAR_f3J1Srh1_s,4.6,1202.0,5,restaurant,Outro,"Avenida das Américas, 3900 Piso L3, Barra da Tijuca, Rio de Janeiro - RJ, 22640-102, Brazil",-22.9977038,-43.3513759,Closed ⋅ Opens 12 PM,,https://lh5.googleusercontent.com/p/AF1QipPflU62h4iexCZd__Nmh8qP8_Jl8eSDiUKS9DCe=w137-h92-k-no,1,1,1,1,1,1,1,12.0,23.5,100.0,100.0,0.0,0.0,100.0,76.0,tarde,noite,1,0,0,0,13.0
Ostro Cozinha & Vinho,ChIJmdCXtbK32JQRGeIHamnST7E,4.6,54.0,5,seafood restaurant,Outro,"Av. Normando Tedesco, 1350 - Centro, Balneário Camboriú - SC, 88330-123, Brazil",-27.0058173,-48.6037061,Closed ⋅ Opens 12 PM,,https://lh5.googleusercontent.com/p/AF1QipPjFXW0g8Nph-BpDGmC8qkYyVNdeCDU9c2OS0xv=w163-h92-k-no,1,0,1,1,1,1,1,12.0,24.0,75.0,100.0,0.0,0.0,100.0,85.0,tarde,noite,1,1,1,0,11.0
Famoso Restaurante,ChIJW_nBToynsJQRRJsKcph13is,4.6,54.0,5,restaurant,Outro,"R. Dr. Júlio Cardoso, 1648 - Centro, Franca - SP, 14400-730, Brazil",-20.5395545,-47.3993129,Open ⋅ Closes 12 AM,,https://lh5.googleusercontent.com/p/AF1QipNt25cbha5rRtu0TKkP6GuGRzG4GsXPDUEjZV6B=w80-h106-k-no,0,1,1,1,1,1,1,,,100.0,66.7,0.0,0.0,0.0,0.0,,,1,1,0,0,
Bistrot venuto,ChIJ6VTodMNZzpQRPpJzkKiI9to,4.6,186.0,5,french restaurant,Oeste,"Rua Peixoto Gomide, 1658 - Jardim Paulista, São Paulo - SP, 01409-002, Brazil",-23.5661796,-46.6628014,Closed ⋅ Opens 12 PM,,https://lh5.googleusercontent.com/p/AF1QipO1I2MHaiLyjsRe7kkyjvkM60XhyjjnAHiEh3Bp=w138-h92-k-no,1,1,1,1,1,1,1,12.0,17.0,100.0,100.0,0.0,0.0,72.0,0.0,tarde,tarde,1,1,0,0,1.0
Gold Star,ChIJu0h_vBACzpQR5oPg1cBax4w,4.5,3381.0,5,restaurant,Outro,"Av. Rei Alberto I, 372 - Ponta da Praia, Santos - SP, 11030-380, Brazil",-23.987692,-46.296826,Closed ⋅ Opens 12 PM,,https://lh5.googleusercontent.com/p/AF1QipOoP_Py03x65AH9XOrQabC8vPmVFvTDf-EKIZgD=w163-h92-k-no,1,1,1,1,1,1,1,11.5,15.0,100.0,100.0,0.0,7.0,43.0,0.0,manha,tarde,0,0,0,0,13.0
Terrazza Rooftop Jardins,ChIJYekTs_dZzpQRQChNY4Exj1k,4.8,846.0,5,restaurant,Oeste,"R. Augusta, 1917 - Cerqueira César, São Paulo - SP, 01413-000, Brazil",-23.5594804,-46.661344,Opens soon ⋅ 11:30 AM,"Swanky fusion eatery with city views. Italian-Japanese cuisine in a posh, indoor-outdoor restaurant & cocktail bar with city panoramas.",https://lh5.googleusercontent.com/p/AF1QipM0SfZ1_M6KQBT445n6irS2d-7pPtpvmqpw2Lsy=w80-h106-k-no,1,1,1,1,1,1,1,11.5,2.0,100.0,100.0,0.0,7.0,100.0,85.0,manha,madrugada,1,0,1,0,14.0
Misturaria Fina Mezcla,ChIJHdHkh_aDmQAR9WUEFFVvyBw,4.8,261.0,1,restaurant,Outro,"R. Dr. Sardinha, 127 - Santa Rosa, Niterói - RJ, 24240-660, Brazil",-22.8988121,-43.0985083,Closed ⋅ Opens 12 PM,,https://lh5.googleusercontent.com/p/AF1QipNAFhm8ZLqMR94JxKBkm2oDVWD_dEskDQW9Rd9V=w156-h92-k-no,1,1,1,1,1,1,1,18.0,22.5,100.0,100.0,0.0,0.0,13.0,59.0,tarde,noite,1,1,0,0,5.0
Maria Pimenta Lanchonete e Restaurante,ChIJGzxR4g3_zpQRnVTIxRvYPkQ,4.2,30.0,5,restaurant,Outro,"R. Pres. Castelo Branco, 192 - Centro, Osasco - SP, 06016-020, Brazil",-23.5356691,-46.7777262,Open ⋅ Closes 3:30 PM,,https://lh5.googleusercontent.com/p/AF1QipPkP2gtRC9Q9Y9nbl03qcp0h0HT9NfhWF4hq9ns=w160-h92-k-no,0,1,1,1,1,1,1,7.0,15.5,100.0,66.7,0.0,83.0,51.0,0.0,manha,tarde,1,1,0,0,11.0
Delírio Tropical Ipanema,ChIJKbHAmQbVmwARS6v8RFPerJs,4.5,2553.0,1,health food restaurant,Outro,"Rua Garcia d'Avila, 48 - Ipanema, Rio de Janeiro - RJ, 22420-041, Brazil",-22.9849765,-43.2091404,Open ⋅ Closes 7 PM,"Home-grown organic food. This restaurant serves juices, plus salads, veggies & fruits home-grown in mountain ranges.",https://lh5.googleusercontent.com/p/AF1QipNbek83SdJVk1lBbt_RjnQRToYrciMDCYl5YThX=w163-h92-k-no,1,1,1,1,1,1,1,11.0,19.0,100.0,100.0,0.0,15.0,100.0,0.0,manha,noite,1,1,0,0,13.0
Bill Breads Bakery,ChIJf1Lls4cBz5QRb8Iocia7rbk,4.6,1018.0,0,restaurant,Outro,"R. Rio Paraná, 56 - Nova Aldeinha, Barueri - SP, 06440-070, Brazil",-23.5120763,-46.8564323,Open ⋅ Closes 9 PM,,https://lh5.googleusercontent.com/p/AF1QipPxMdLhoeNDrkKWFSJ1bjgtovkENAuXaNU6xcKn=w138-h92-k-no,1,1,1,1,1,1,1,5.666666666666667,21.0,100.0,100.0,5.0,100.0,100.0,34.0,madrugada,noite,1,1,0,0,5.0
Manacá Restaurante,ChIJc_dvlTCB0pQRkenZ1t6DQN8,4.5,794.0,3,seafood restaurant,Outro,"R. Manacá, 102 - Praia de Camburí, São Sebastião - SP, 11619-383, Brazil",-23.7742347,-45.6440658,Closed ⋅ Opens 1 PM,,https://lh5.googleusercontent.com/p/AF1QipNoZ44QvMuzRXDblRihFDHXPquCvwpzBnCQ-wgk=w80-h106-k-no,1,0,0,0,1,1,1,13.0,22.0,25.0,100.0,0.0,0.0,86.0,51.0,tarde,noite,1,1,0,0,15.0
Domo Sushi Bar,ChIJFQdL95NezpQRNVb51MFQ-ps,4.5,1702.0,1,japanese restaurant,Leste,"Largo Nossa Sra. do Bom Parto, 37 - Vila Gomes Cardim, São Paulo - SP, 03322-080, Brazil",-23.5480764,-46.5687482,Closed ⋅ Opens 12 PM,"Japanese food in a nature-themed setting. Rustic-chic eatery with wood décor, trees & a mini waterfall, serving sushi, robata, tempura & more.",https://lh5.googleusercontent.com/p/AF1QipOK7tG_4H6RjnYFHa3aoK2BbGMVN6-pnmbgvit_=w185-h92-k-no,1,1,1,1,1,1,1,12.0,15.5,100.0,100.0,0.0,0.0,51.0,0.0,tarde,tarde,1,1,0,0,2.0
Le Bou Bistrô,ChIJxSQwQF5XzpQRX2VbgRBA4GY,4.3,528.0,1,bar,Oeste,"R. Dr. Renato Paes de Barros, 415 - Itaim Bibi, São Paulo - SP, 04530-000, Brazil",-23.5821982,-46.673992,Opens soon ⋅ 11:30 AM,,https://lh5.googleusercontent.com/p/AF1QipMIZKOcH-A-Uig6-huaQOkrU8RD8D61iN0o1fhE=w137-h92-k-no,0,1,1,1,1,1,1,11.5,15.0,100.0,66.7,0.0,7.0,43.0,0.0,manha,tarde,1,1,0,0,0.0
Restaurante Cremerie,ChIJwRDt_XhMmAAR2Ov6CKnryTk,4.4,552.0,2,french restaurant,Outro,"Estrada Teresópolis Friburgo, Km 16, s/n, Venda Nova, Teresópolis - RJ, 25977-400, Brazil",-22.3450806,-42.8503022,Open ⋅ Closes 6 PM,,https://lh5.googleusercontent.com/p/AF1QipM2hfQbRyJ3wt6UScuiH7e6wc1iCnurY1pe-Mkm=w122-h92-k-no,1,0,1,1,1,1,1,9.5,18.0,75.0,100.0,0.0,41.0,87.0,0.0,manha,tarde,1,0,0,0,11.0
Fazenda da Comadre,ChIJlxuwAramzZQRfyoTTUqUb5g,4.6,12756.0,1,restaurant,Outro,"Rod. dos Tamoios, km 43, Paraibuna - SP, 12260-000, Brazil",-23.444695,-45.6089209,Open ⋅ Closes 10 PM,,https://lh5.googleusercontent.com/p/AF1QipMnoF3nPSAsam9San4Vutz9IWLGRrvSRXmH0fJ-=w139-h92-k-no,1,1,1,1,1,1,1,6.5,24.0,100.0,100.0,0.0,92.0,100.0,85.0,manha,noite,1,1,0,0,11.0
Maya Café,ChIJ_8iJ3-p_mQARj22svCC6BBU,4.5,1418.0,1,restaurant,Outro,"R. Prof. Ortiz Monteiro, 15 B - Laranjeiras, Rio de Janeiro - RJ, 22245-100, Brazil",-22.9411731,-43.1919014,Open ⋅ Closes 10 PM,"Coffee, snacks & wine with books. A cozy bistro with soft décor & books, serving breakfast, brunch & lunch, plus happy hour.",https://lh5.googleusercontent.com/p/AF1QipOmvBckgTsg_L1XmjnAvHQbEFHbZpYobY42YI3Z=w138-h92-k-no,1,1,1,1,1,1,1,11.0,22.0,100.0,100.0,0.0,15.0,100.0,51.0,manha,noite,1,1,0,0,11.0
Frevo,ChIJKRUBl9ZZzpQRo4N6odTPPeM,4.4,1451.0,5,restaurant,Oeste,"R. Oscar Freire, 588 - Jardim Paulista, São Paulo - SP, 01426-000, Brazil",-23.564908,-46.6667393,Open ⋅ Closes 1 AM,"A very traditional snack bar. São Paulo-style snack bar serving the famous local beirute sandwich, plus other dishes & draft beer.",https://lh5.googleusercontent.com/p/AF1QipPyAfv7kjM87r5xCZWkP_0eQDIUdx5atKLllUkN=w80-h106-k-no,1,1,1,1,1,1,1,10.5,1.0,100.0,100.0,0.0,24.0,100.0,85.0,manha,madrugada,1,1,0,0,12.0
Nola,ChIJXxfMXLPVmwARuO3YC_0Jd_A,4.6,951.0,2,restaurant,Outro,"Rua Dias Ferreira, 247 - Leblon, Rio de Janeiro - RJ, 22431-050, Brazil",-22.9840584,-43.2274173,Closed ⋅ Opens 12 PM,,https://lh5.googleusercontent.com/p/AF1QipM9IuMzMXK_FvM1U5NMJEtx6mDfXb5om49BDHvz=w122-h92-k-no,1,1,1,1,1,1,1,12.0,1.0,100.0,100.0,0.0,0.0,100.0,85.0,tarde,madrugada,1,1,0,0,1.0
Cha Cha,ChIJ7-DihENXzpQRu2KD_QcYvpQ,4.1,402.0,2,restaurant,Oeste,"R. Lopes Neto, 340 - Itaim Bibi, São Paulo - SP, 04533-030, Brazil",-23.5885042,-46.6832933,Closed ⋅ Opens 7 AM Mon,"Casual trendy restaurant serves all day. A casual & cozy restaurant serving contemporary dishes for breakfast, lunch & dinner.",https://lh5.googleusercontent.com/p/AF1QipPcA_73Jj_ODXsMfGA9a_ViCuoUfweuIlp31QSp=w80-h142-k-no,0,1,1,1,1,1,0,7.0,18.0,100.0,33.3,0.0,83.0,87.0,0.0,manha,tarde,1,1,0,0,14.0
Hospedaria Mooca,ChIJ430S80ZZzpQR1UOJMRTY3EA,4.4,1960.0,1,restaurant,Leste,"R. Borges de Figueiredo, 82 - Mooca, São Paulo - SP, 03110-010, Brazil",-23.5555238,-46.6078044,Closed ⋅ Opens 12 PM,"Hip venue for creative comfort food. Upmarket takes on homestyle comfort food offered in a cool, industrial-chic setting.",https://lh5.googleusercontent.com/p/AF1QipNlKdntRgricBEAvDbOT1HGP1MuZl6nKoNMwBYu=w163-h92-k-no,1,1,1,1,1,1,1,12.0,22.5,100.0,100.0,0.0,0.0,100.0,59.0,tarde,noite,1,1,0,0,14.0
Al Bak Comida Árabe,ChIJv5KmTezQ7JQRUC_dKNkZqkU,4.7,317.0,1,middle eastern restaurant,Outro,"Av. Mauá, 2701 - Zona 03, Maringá - PR, 87050-020, Brazil",-23.4203395,-51.9285657,Opens soon ⋅ 11:30 AM,,https://lh5.googleusercontent.com/p/AF1QipOaV9_nwa4YuWSwFqSIg4tBdLLdtFzGwAVjFP_G=w138-h92-k-no,0,1,1,1,1,1,1,10.5,18.0,100.0,66.7,0.0,24.0,87.0,0.0,manha,tarde,1,1,0,0,13.0
Mistico Restaurant,ChIJ5abFEAtVlgARu-AkAdXLV3A,4.7,718.0,3,restaurant,Outro,"R. Morro do Humaitá, 13 - Lot. Triangulo de Buzios, Búzios - RJ, 28950-000, Brazil",-22.7525946,-41.883334,Closed ⋅ Opens 1 PM,,https://lh5.googleusercontent.com/p/AF1QipME2pco6faJ3-62-mRED5W4Z4MSn85OH_74x-Zb=w142-h92-k-no,1,1,1,1,1,1,1,13.0,23.0,100.0,100.0,0.0,0.0,86.0,68.0,tarde,noite,1,0,0,0,6.0
Dati Restaurante,ChIJlfjyU9v_0ZQRIuyWWkv4W1g,4.4,5432.0,1,pizza restaurant,Outro,"Av. Miguel Estefno, 1755 - Jardim Vitoria, Guarujá - SP, 11440-531, Brazil",-23.987421,-46.2331542,Open ⋅ Closes 2 AM,,https://lh5.googleusercontent.com/p/AF1QipOhj-SHbGZxnfmcukv5ujS8j9B41xFl92NIuNQ=w92-h92-k-no,1,1,1,1,1,1,1,11.0,2.0,100.0,100.0,0.0,15.0,100.0,85.0,manha,madrugada,1,1,0,0,7.0
Joy Sushi Santana,ChIJi_801TX2zpQRCFI2pF7_4IU,4.5,1541.0,2,japanese restaurant,Norte,"R. José Doll de Moraes, 70 - Santana, São Paulo - SP, 02404-070, Brazil",-23.4908614,-46.627125,Closed ⋅ Opens 12 PM,"Japanese cuisine with outdoor seating. A Japanese restaurant with typical décor, outdoor seating, all-you-can-eat lunch & combos.",https://lh5.googleusercontent.com/p/AF1QipMrwn74uZIjZnugwHzGTD7KZufP-qGN621Hg_CC=w122-h92-k-no,1,1,1,1,1,1,1,12.0,15.5,100.0,100.0,0.0,0.0,51.0,0.0,tarde,tarde,1,1,0,0,2.0
Restaurante Capim Santo São Paulo - Museu da Casa Brasileira,ChIJe3cY4M1ZzpQRAsQpeMVzkXk,4.5,3288.0,2,brazilian restaurant,Oeste,"Av. Brg. Faria Lima, 2705 - Jardim Europa, São Paulo - SP, 01451-000, Brazil",-23.5799127,-46.6844895,Open ⋅ Closes 6 PM,,https://lh5.googleusercontent.com/p/AF1QipOPB7-ZpagvtWQvCnHiqfEBncmwyh3UWCGzYoQ=w122-h92-k-no,1,0,1,1,1,1,1,10.0,18.0,75.0,100.0,0.0,32.0,87.0,0.0,manha,tarde,1,1,0,0,5.0
Eataly,ChIJ-7uLTERXzpQR8d3dw3KgHlU,4.6,38751.0,2,italian restaurant,Oeste,"Av. Pres. Juscelino Kubitschek, 1489 - Vila Nova Conceição, São Paulo - SP, 04543-011, Brazil",-23.591715,-46.6834333,Open ⋅ Closes 11 PM,"Expansive food hall for Italian fare. Cavernous food hall offering various Italian food outlets, plus fresh fruit & vegetables.",https://lh5.googleusercontent.com/p/AF1QipMVQgASM_miGxOd9plUj4aV-al8adAcbEQA9cLc=w80-h106-k-no,1,1,1,1,1,1,1,9.0,23.0,100.0,100.0,0.0,49.0,100.0,68.0,manha,noite,1,1,0,0,14.0
Coco Bambu,ChIJj4FXBGFRzpQR7LXAktHyo8c,4.7,13630.0,2,seafood restaurant,Sul,"Shopping Sp Market, Av. das Nações Unidas, 22540 - Vila Almeida, São Paulo - SP, 04795-000, Brazil",-23.6787169,-46.6984996,Opens soon ⋅ 11:30 AM,,https://lh5.googleusercontent.com/p/AF1QipNWpPsuejOnuM06WMcRM0W2omDbbbKJv_eTJtTI=w154-h92-k-no,1,1,1,1,1,1,1,11.5,24.0,100.0,100.0,0.0,7.0,100.0,85.0,manha,noite,1,1,0,0,3.0
Jiquitaia,ChIJCaUFxsxZzpQRQO93YKHQBz0,4.6,2008.0,1,brazilian restaurant,Sul,"Rua Coronel Oscar Porto, 808 - Paraíso, São Paulo - SP, 04003-004, Brazil",-23.5762365,-46.6458279,Closed ⋅ Opens 12 PM,Varied Brazilian-style cuisine. A cozy eatery with unassuming décor that serves varied cuisine with a Brazilian twist.,https://lh5.googleusercontent.com/p/AF1QipPu-SVS6g7ddXQgfSY2fIxXxx_6nIiB6OLf9YUq=w136-h92-k-no,1,0,1,1,1,1,1,12.0,16.0,75.0,100.0,0.0,0.0,58.0,0.0,tarde,tarde,1,1,0,0,10.0
Restaurante Amadeus,ChIJKdgB3tJZzpQRPavAu0IR--E,4.6,642.0,3,seafood restaurant,Oeste,"Rua Haddock Lobo, 807 - Cerqueira César, São Paulo - SP, 01420-002, Brazil",-23.5593657,-46.6630179,Closed ⋅ Opens 12 PM,"A sophisticated seafood restaurant. A cozy spot with oysters cultivated in-house, specialty seafood dishes & an extensive wine list.",https://lh5.googleusercontent.com/p/AF1QipNo_11pc7zs4UnIKvQvqKCB4Hbpe2kJIakqTqFc=w138-h92-k-no,1,1,1,1,1,1,1,12.0,16.0,100.0,100.0,0.0,0.0,58.0,0.0,tarde,tarde,1,1,0,0,1.0
Manai Gastronomia,ChIJe6t1Os1ZzpQRs-MxtQ5RziQ,4.6,1839.0,2,buffet restaurant,Centro,"R. Augusta, 1605 - Consolação, São Paulo - SP, 01305-100, Brazil",-23.557392,-46.6592706,Closed ⋅ Opens 12 PM,,https://lh5.googleusercontent.com/p/AF1QipPWDfdn-fWtac8EFSV5XeHZsnU7dsPzwybIGh2d=w122-h92-k-no,1,1,1,1,1,1,1,11.0,15.0,100.0,100.0,0.0,15.0,43.0,0.0,manha,tarde,1,1,0,0,7.0
Leiteria Ita,ChIJAQO1AlFYzpQRNi25tKZj-As,4.6,1039.0,0,brazilian restaurant,Centro,"R. do Boticário, 31 - República, São Paulo - SP, 01040-010, Brazil",-23.5425544,-46.6386773,Opens soon ⋅ 11:30 AM,"Homemade food in a simple setting. Acclaimed homemade food, virado à paulista & breaded steak in a traditional & simple spot.",https://lh5.googleusercontent.com/p/AF1QipMJIySjyhSAvGuNytYNBrNaKoi6HPB-xUZy0HQa=w163-h92-k-no,0,1,1,1,1,0,1,11.5,16.5,100.0,33.3,0.0,7.0,65.0,0.0,manha,tarde,1,1,0,0,14.0
O Gato Que Ri,ChIJ69t2yUVYzpQRoT6Ye8eQC_o,4.5,5794.0,1,italian restaurant,Centro,"Largo do Arouche, 37/41 - República, São Paulo - SP, 01219-011, Brazil",-23.5413951,-46.6446752,Closed ⋅ Opens 12 PM,"Italian cuisine with homemade pasta. Traditional Italian recipes & homemade pasta, in an elegant & casual setting founded in 1951.",https://lh5.googleusercontent.com/p/AF1QipNbwzRraNDnZFPpQSFq0_ntasU99MHQ8k6E11SP=w122-h92-k-no,1,1,1,1,1,1,1,12.0,16.0,100.0,100.0,0.0,0.0,58.0,0.0,tarde,tarde,1,1,0,0,1.0
Restaurante Expresso São Paulo,ChIJU5UUx1RYzpQRWUs6_yqQFGc,4.4,730.0,1,restaurant,Centro,"R. da Quitanda, 123 - Centro Histórico de São Paulo, São Paulo - SP, 01012-010, Brazil",-23.5477846,-46.6355018,Closed ⋅ Opens 11 AM Mon,,https://lh5.googleusercontent.com/p/AF1QipO4a5QwAtI_JUjiHoa3iDy_L3WVQMRZHvO-2bTR=w80-h106-k-no,0,1,1,1,1,1,0,11.0,23.5,100.0,33.3,0.0,15.0,100.0,76.0,manha,noite,1,1,0,0,15.0
Barolo Trattoria Jardins | São Paulo,ChIJATyQmB1ZzpQRgrG-ddlha30,4.6,656.0,1,italian restaurant,Oeste,"R. Padre João Manuel, 1249 - Jardins, São Paulo - SP, 01411-001, Brazil",-23.5672913,-46.667601,Closed ⋅ Opens 12 PM,,https://lh5.googleusercontent.com/p/AF1QipPxOBQzF4GkMGZXHA9SUAtN8TZHQApW_YrcyOhz=w122-h92-k-no,1,1,1,1,1,1,1,12.0,15.0,100.0,100.0,0.0,0.0,43.0,0.0,tarde,tarde,1,1,0,0,8.0
Casa da Mortadela,ChIJ717JOFBYzpQR6ylaW_cggBo,4.5,1349.0,1,bar,Centro,"Av. São João, 633 - República, São Paulo - SP, 01035-100, Brazil",-23.5426521,-46.6401373,Open ⋅ Closes 8 PM,,https://lh5.googleusercontent.com/p/AF1QipO6ib9Nizfo4N027osb_cKnm1sM8wPCg0BZ_VxC=w122-h92-k-no,0,1,1,1,1,1,1,10.0,20.0,100.0,66.7,0.0,32.0,100.0,17.0,manha,noite,1,1,0,0,1.0
Restaurante Emiliano,ChIJtyRW09ZZzpQRLt2nWdS_H1o,4.6,561.0,3,italian restaurant,Oeste,"R. Oscar Freire, 384 - Cerqueira César, São Paulo - SP, 01426-000, Brazil",-23.5661382,-46.6652331,Closed ⋅ Opens 12 PM,"A sophisticated Italian eatery. An upscale Italian restaurant with a refined menu, plus a huge selection of wines & champagne.",https://lh5.googleusercontent.com/p/AF1QipNqLMXDOxsC9YhhJ8NN6cKlfAPf67jDIbScrZy0=w122-h92-k-no,1,1,1,1,1,1,1,18.0,11.0,100.0,100.0,0.0,0.0,13.0,85.0,tarde,manha,1,1,1,0,14.0
Gero Restaurant,ChIJ3bvo19VZzpQRDgbV9xTNMQI,4.5,1134.0,3,italian restaurant,Oeste,"Rua Haddock Lobo, 1629 - Jardins, São Paulo - SP, 01414-003, Brazil",-23.5648955,-46.6685513,Closed ⋅ Opens 12 PM,"Italian haute cuisine. A modern, sophisticated restaurant with an extensive wine list that serves classic Italian cuisine.",https://lh5.googleusercontent.com/p/AF1QipNaelsQnK0k5zTjRhF-MIKN1PIwcpV7oUiUCHc=w122-h92-k-no,1,1,1,1,1,1,1,12.0,1.0,100.0,100.0,0.0,0.0,100.0,85.0,tarde,madrugada,1,0,0,0,1.0
Barskiy Dom - Restaurante Russo,ChIJhayspCtZzpQRysss1ZYGss8,4.6,406.0,1,restaurant,Sul,"R. Apeninos, 681 - Aclimação, São Paulo - SP, 01533-000, Brazil",-23.573513,-46.6390664,Closed ⋅ Opens 12 PM,,https://lh5.googleusercontent.com/p/AF1QipPZnS_KhP5DGo9jZnpJ1v8Ty8eELNeqNnX1AD7q=w122-h92-k-no,1,1,1,1,1,1,1,11.0,15.0,100.0,100.0,0.0,15.0,43.0,0.0,manha,tarde,1,1,1,0,7.0
Restaurante Bom Gosto,ChIJ8XrTtFVYzpQRDJU8eGeZlOA,4.5,966.0,1,restaurant,Centro,"R. São Bento, 525 - Centro Histórico de São Paulo, São Paulo - SP, 01011-100, Brazil",-23.5447211,-46.6344326,Open ⋅ Closes 4 PM,,https://lh5.googleusercontent.com/p/AF1QipP4hylhObbt-G5QxQ0SqrkoOM5HoGexvEbgimfW=w122-h92-k-no,0,1,1,1,1,1,1,7.0,23.0,100.0,66.7,0.0,83.0,100.0,68.0,manha,noite,1,1,1,0,2.0
Bella São Paulo,ChIJaRlcGqtZzpQRnipueKeTtgk,4.4,294.0,1,restaurant,Centro,"R. Quintino Bocaiúva, 129 - Centro Histórico de São Paulo, São Paulo - SP, 01005-000, Brazil",-23.5497554,-46.6349202,Open ⋅ Closes 4:30 PM,,,0,1,1,1,1,1,1,6.5,20.0,100.0,66.7,0.0,92.0,100.0,17.0,manha,noite,1,1,0,0,12.0
Taormina Ristorante Siciliano,ChIJg8lW78VZzpQRUOB-PuB-VpQ,4.7,1053.0,2,italian restaurant,Oeste,"Alameda Itu, 251 - Cerqueira César, São Paulo - SP, 01421-000, Brazil",-23.5662854,-46.6569597,Closed ⋅ Opens 12 PM,A set-menu Italian restaurant. A traditional Italian cantina serving handmade dishes from a unique daily fixed-price menu.,,1,1,1,1,1,1,1,12.0,15.5,100.0,100.0,0.0,0.0,51.0,0.0,tarde,tarde,1,1,1,0,2.0
Restaurante Recanto dos Sabores,ChIJhTti8cBZzpQRWEGjjpBJKfQ,4.6,132.0,0,restaurant,Oeste,"Alameda Sarutaiá, 49 - Jardim Paulista, São Paulo - SP, 01403-010, Brazil",-23.5707977,-46.6527382,Open ⋅ Closes 4 PM,,,0,1,1,1,1,1,1,8.0,17.0,100.0,66.7,0.0,66.0,72.0,0.0,manha,tarde,1,1,0,0,7.0
Restaurante Aizomê Japan House,ChIJO_6vhBdZzpQR9h2_WlFZjGs,4.7,278.0,5,restaurant,Sul,"Av. Paulista, 52 - 2o. Andar - Bela Vista, São Paulo - SP, 01310-000, Brazil",-23.5705624,-46.6445863,Opens soon ⋅ 11:30 AM,,,1,0,1,1,1,1,1,11.5,16.5,75.0,100.0,0.0,7.0,65.0,0.0,manha,tarde,1,1,0,0,8.0
Consulado da Bahia - Pinheiros,ChIJKcc_OnZXzpQRuFATIPXZLTM,4.6,4233.0,1,brazilian restaurant,Oeste,"R. dos Pinheiros, 534 - Pinheiros, São Paulo - SP, 05422-000, Brazil",-23.5656587,-46.6832349,Closed ⋅ Opens 12 PM,"Bahia food in vibrant surrounds. Food from Bahia, including acarajé, moquecas & other specialties, in a colorful environment.",,1,0,1,1,1,1,1,12.0,23.0,75.0,100.0,0.0,0.0,100.0,68.0,tarde,noite,1,1,0,0,11.0
Restaurante Dare,ChIJxTgZX2dYzpQRuvxRC1Z7Ojg,4.6,1526.0,1,korean restaurant,Centro,"Rua Correia de Melo, 54 - Bom Retiro, São Paulo - SP, 01123-020, Brazil",-23.5307133,-46.637824,Opens soon ⋅ 11:30 AM,"Korean dining & Asian-Brazilian fare. Spacious venue with Korean a la carte fare, as well as sushi & Brazilian options.",,0,1,1,1,1,1,1,11.5,14.5,100.0,66.7,0.0,7.0,36.0,0.0,manha,tarde,1,1,0,0,15.0
Cantina Mamma Celeste,ChIJF7LxsbZZzpQRM6yZAVVQdaw,4.4,1933.0,1,italian restaurant,Centro,"R. Conselheiro Carrão, 460 - Bela Vista, São Paulo - SP, 01328-000, Brazil",-23.5576772,-46.6466909,Opens soon ⋅ 11:30 AM,"A cozy, traditional Italian restaurant. A family restaurant serving antipasti, pastas, meat & risottos in a warm, relaxed setting.",,1,0,1,1,1,1,1,11.5,16.0,75.0,100.0,0.0,7.0,58.0,0.0,manha,tarde,1,1,0,0,8.0
Kim's Bap Café e Restaurante,ChIJ0bq1lERZzpQRklYezfECWAI,4.8,19.0,5,restaurant,Centro,"Av. Brigadeiro Luís Antônio, 359 - Bela Vista, São Paulo - SP, 01317-000, Brazil",-23.5535911,-46.6382282,,,,1,1,1,1,1,1,1,,,100.0,100.0,0.0,0.0,0.0,0.0,,,1,1,0,0,
Mondo Gastronômico,ChIJ2_80jNpZzpQRSl18QEL4OpY,4.5,796.0,2,italian restaurant,Oeste,"R. Oscar Freire, 30 - Jardim Paulista, São Paulo - SP, 01426-000, Brazil",-23.5684289,-46.6627654,Closed ⋅ Opens 12 PM,,,1,0,1,1,1,1,1,12.0,15.0,75.0,100.0,0.0,0.0,43.0,0.0,tarde,tarde,1,1,0,0,15.0
El Mercado Ibérico,ChIJybrdbVZZzpQREIC6U89b0ao,4.5,122.0,5,restaurant,Centro,"R. Pamplona, 310 - Bela Vista, São Paulo - SP, 01405-000, Brazil",-23.5614873,-46.6519569,Open ⋅ Closes 11 PM,,,1,1,1,1,1,1,1,9.0,21.0,100.0,100.0,0.0,49.0,100.0,34.0,manha,noite,1,1,1,0,5.0
Garimpos do Interior,ChIJyyujYHf4zpQRZaGRWU7ZhmY,4.5,626.0,1,restaurant,Oeste,"Rua Marco Aurélio, 201 - Vila Romana, São Paulo - SP, 05048-000, Brazil",-23.5289235,-46.6992245,Closed ⋅ Opens 12 PM,"A cachaça bar with country-style food. A rustic spot for hearty servings of homemade cuisine, plus craft cachaça.",,1,0,0,1,1,1,1,12.0,15.5,50.0,100.0,0.0,0.0,51.0,0.0,tarde,tarde,1,1,0,0,11.0
Pratada!,ChIJ1z605XdZzpQR-RnkFqONWrc,4.7,196.0,0,health food restaurant,Centro,"Rua Gen. Jardim, 160 - Vila Buarque, São Paulo - SP, 01223-010, Brazil",-23.5444423,-46.646077,Opens soon ⋅ 11:45 AM,"Low-key venue for vegan meals & desserts. Plant-based specialties, desserts & teas are served in this unpretentious restaurant.",,0,1,1,1,1,1,1,11.75,15.0,100.0,66.7,0.0,3.0,43.0,0.0,manha,tarde,1,1,0,0,5.0
Casa Rara grill,ChIJtQYSsqxZzpQRNBozG6nHpLY,4.5,548.0,1,restaurant,Centro,"Praça Ouvidor Pachêco e Silva, 104 - Sé, São Paulo - SP, 01005-010, Brazil",-23.548842,-46.636999,Closed ⋅ Opens 11 AM Mon,,,0,1,1,1,1,0,0,11.0,16.0,100.0,0.0,0.0,15.0,58.0,0.0,manha,tarde,1,1,0,0,10.0
Que Pasa?,ChIJbcNFLs1ZzpQRwiqazMv-bb4,4.4,2214.0,1,restaurant,Centro,"R. Augusta, 1559 - Consolação, São Paulo - SP, 04536-020, Brazil",-23.5570734,-46.6589542,Open ⋅ Closes 12 AM,,,1,1,1,1,1,1,1,6.0,24.0,100.0,100.0,0.0,100.0,100.0,85.0,manha,noite,1,1,1,0,11.0
Restaurante Armazem Morumbi,ChIJIQcuwPNXzpQRjKZZ6x8rLHo,4.5,452.0,5,restaurant,Oeste,"Av. das Nações Unidas, 12901 - Brooklin, São Paulo - SP, 04578-910, Brazil",-23.6056137,-46.6964874,Closed ⋅ Opens 12:30 PM,,https://lh5.googleusercontent.com/p/AF1QipOxujiFCrZ_HOX6TuRqfcwCtxMfTtqAFoAham-6=w175-h92-k-no,1,1,1,1,1,1,1,18.5,10.5,100.0,100.0,0.0,0.0,6.0,85.0,tarde,manha,1,1,0,0,14.0
Casa Maricota,ChIJK2e0_ZZZzpQR-2VMPtkTjTU,4.6,492.0,1,brazilian restaurant,Sul,"Rua Abrão Dib, 20 - Paraíso, São Paulo - SP, 04040-060, Brazil",-23.5733984,-46.6441005,Closed ⋅ Opens 11:30 AM Mon,À-la-carte lunch in a cozy setting. This spot offers grilled salmon with lemon & ginger sauce or classic feijoada in a quiet setting.,https://lh5.googleusercontent.com/p/AF1QipPMj2XTuV-bmolf00LSFPLam-U6budiweCAMJGO=w122-h92-k-no,0,1,1,1,1,1,0,11.5,15.0,100.0,33.3,0.0,7.0,43.0,0.0,manha,tarde,1,1,0,0,8.0
Restaurante Yashiro,ChIJSYUSx6ZXzpQRkHLfqBEAEow,4.5,622.0,2,japanese restaurant,Oeste,"R. Fernão Dias, 525 - Pinheiros, São Paulo - SP, 05427-011, Brazil",-23.5657875,-46.6953662,Closed ⋅ Opens 12 PM,"Japanese restaurant for the whole family. Traditional Japanese food like sukiyaki & sashimi served in a modest, quiet, 2-story restaurant.",https://lh5.googleusercontent.com/p/AF1QipN6ZUvqbva9QgOu48K70Qz-zIOHd4ezqepS-xG8=w189-h92-k-no,1,0,1,1,1,1,1,12.0,14.5,75.0,100.0,0.0,0.0,36.0,0.0,tarde,tarde,1,1,0,0,4.0
Caluma Restaurante,ChIJ047Tiq5XzpQRKaQB2LWYIrs,4.6,585.0,5,buffet restaurant,Oeste,"Avenida das Nações Unidas 12901 123 & 124, Cidade Monções, São Paulo - SP, 04578-910, Brazil",-23.610298,-46.6972167,Closed ⋅ Opens 11:30 AM Mon,"A sophisticated bar with live music. A trendy bar & restaurant with a lunch buffet, plus a happy hour with appetizers & live music.",https://lh5.googleusercontent.com/p/AF1QipO-Nn_WhzSI0Ep_6TqVNYOyWxhhbgqDqr6HHC9E=w80-h106-k-no,0,1,1,1,1,1,0,11.5,15.5,100.0,33.3,0.0,7.0,51.0,0.0,manha,tarde,1,1,0,0,14.0
Dalva e Dito,ChIJ5zh94NZZzpQRRKDDOyn6BEY,4.5,2450.0,5,brazilian restaurant,Oeste,"R. Padre João Manuel, 1115 - Cerqueira César, São Paulo - SP, 01411-001, Brazil",-23.5664322,-46.6668049,Closed ⋅ Opens 12 PM,"A rustic, modern spot for Brazilian fare. Traditional Brazilian food prepared by chef Alex Atala in a setting that mixes rustic with modern.",https://lh5.googleusercontent.com/p/AF1QipMqiaIQlM-0P5nrMpxzuADuvDOibzRR5y9QM1wE=w163-h92-k-no,1,1,1,1,1,1,1,12.0,15.0,100.0,100.0,0.0,0.0,43.0,0.0,tarde,tarde,1,1,0,0,14.0
Bar do Mané,ChIJYzoU1PhYzpQRjmYsKF9otzI,4.7,1563.0,1,fast food restaurant,Centro,"Rua da Cantareira, Rua E, 306 - Box 14 - Centro Histórico de São Paulo, São Paulo - SP, 01024-000, Brazil",-23.5417518,-46.6294119,Open ⋅ Closes 5 PM,"A casual spot with mortadella sandwiches. This bar, a favorite with locals, serves classic mortadella sandwiches in a casual setting.",https://lh5.googleusercontent.com/p/AF1QipNytBl8XVMTlZa0H1n2D36ETqtYE2WasycMe_kD=w111-h92-k-no,1,1,1,1,1,1,1,5.5,17.0,100.0,100.0,8.0,100.0,72.0,0.0,madrugada,tarde,1,1,0,0,4.0
Casa de Francisca,ChIJ_24wa8FZzpQR2qtTCwBXdcM,4.7,2358.0,1,restaurant,Centro,"R. Quintino Bocaiúva, 22 - Sé, São Paulo - SP, 01004-010, Brazil",-23.5487985,-46.6348493,Closed ⋅ Opens 12 PM,"A cozy venue serving a variety of dishes. A comfy cabaret theater with pub food, Italian-style dishes & live Brazilian pop music.",https://lh5.googleusercontent.com/p/AF1QipOJDe4CFiKwxAOinAkbvVxuKxac0Ve8RXbQhyKA=w163-h92-k-no,1,0,1,1,1,1,1,11.5,15.0,75.0,100.0,0.0,7.0,43.0,0.0,manha,tarde,1,1,0,0,14.0
A Bela Sintra,ChIJgSfl89VZzpQRY5yT9RYJSXE,4.6,993.0,3,portuguese restaurant,Oeste,"R. Bela Cintra, 2325 - Jardim Paulista, São Paulo - SP, 01415-002, Brazil",-23.5645367,-46.6700353,Closed ⋅ Opens 12 PM,Chic space for Portuguese menus. Refined Portuguese & global menus in an elegant dining room with modern art & photos on the walls.,https://lh5.googleusercontent.com/p/AF1QipMwi2s_rOL51LdYTeHPhcKCvQvDJte4AuyaBIwt=w163-h92-k-no,1,1,1,1,1,1,1,12.0,15.0,100.0,100.0,0.0,0.0,43.0,0.0,tarde,tarde,1,1,0,0,8.0
Terraço Jardins,ChIJW2wfydJZzpQRhhJhpOjiVFA,4.7,317.0,5,restaurant,Oeste,"Alameda Santos, 2233 - Jardim Paulista, São Paulo - SP, 01419-002, Brazil",-23.5588858,-46.6623663,Closed ⋅ Opens 12 PM,Brazilian fare in an elegant hotel. Elegant restaurant with creative Brazilian dishes & a view of the city from the Renaissance hotel.,https://lh5.googleusercontent.com/p/AF1QipOoVvLgq1iP29uewGbf9KaDkjoEwn1cYniB-kk0=w138-h92-k-no,1,1,1,1,1,1,1,19.0,11.0,100.0,100.0,0.0,0.0,0.0,85.0,noite,manha,1,1,0,0,0.0
Mica,ChIJP-NxwqZXzpQR9P3yA2ffESw,4.5,884.0,1,restaurant,Oeste,"R. Guaicuí, 33 - Pinheiros, São Paulo - SP, 05427-030, Brazil",-23.5662562,-46.6958233,Closed ⋅ Opens 12 PM,,https://lh5.googleusercontent.com/p/AF1QipO7Ce4uomfOp82PGlP_JTKJ5BRUtStLk8psfgbb=w138-h92-k-no,1,1,1,1,1,1,1,12.0,16.0,100.0,100.0,0.0,0.0,58.0,0.0,tarde,tarde,1,1,0,0,1.0
Bosco Restaurante,ChIJx67-3_RXzpQRllVzn0uYXzc,4.6,313.0,5,italian restaurant,Oeste,"R. João Moura, 976 - Pinheiros, São Paulo - SP, 05412-002, Brazil",-23.5571718,-46.6797952,Closed ⋅ Opens 12 PM,,https://lh5.googleusercontent.com/p/AF1QipMGRCPu7DKIscnrEGAln_P-x3aJr3nhByKVPPk2=w80-h115-k-no,1,0,1,1,1,1,1,12.0,15.0,75.0,100.0,0.0,0.0,43.0,0.0,tarde,tarde,1,1,0,0,9.0
Abruzzo Trattoria,ChIJdXzasgZazpQRpNNlEEvxtEY,4.5,1491.0,0,italian restaurant,Sul,"R. Gaivota, 678 - Moema, São Paulo - SP, 04522-031, Brazil",-23.6021438,-46.6664464,Opens soon ⋅ 11:30 AM,,https://lh5.googleusercontent.com/p/AF1QipMWRxsXsc3T3QZR2RcovKr8g1qX6B8HB1xy5weo=w133-h92-k-no,1,1,1,1,1,1,1,11.5,15.0,100.0,100.0,0.0,7.0,43.0,0.0,manha,tarde,1,1,0,0,5.0
Andiamo - Shopping Cidade São Paulo,ChIJwWg0iMhZzpQRPplLNLkckmY,4.4,2203.0,5,restaurant,Oeste,"Av. Paulista, 1230 - Bela Vista, São Paulo - SP, 01310-100, Brazil",-23.5635414,-46.6532392,Closed ⋅ Opens 12 PM,"Italian fare in a modern space. A rustic restaurant serving carpaccios, pastas, grilled food, wine & Italian desserts.",https://lh5.googleusercontent.com/p/AF1QipMf5QPQG8idROvChH6VQz_B5q5nsXiZzfobmVd-=w122-h92-k-no,1,1,1,1,1,1,1,12.0,23.0,100.0,100.0,0.0,0.0,100.0,68.0,tarde,noite,1,0,0,0,13.0
Restaurante Vitta,ChIJtdgv9e1ZzpQRQlEPEQI8Ho4,4.3,77.0,5,restaurant,Centro,"Vitta Eventos, Av. Armando Ferrentini, 185 - Aclimação, São Paulo - SP, 04103-030, Brazil",-23.574053,-46.6328839,Closed ⋅ Opens 11:45 AM Mon,,https://lh5.googleusercontent.com/p/AF1QipMYx4QK0Bhljqpx0CtUcRm0tVb_v6RqcxPXXb3l=w163-h92-k-no,0,1,1,1,1,1,0,11.75,15.0,100.0,33.3,0.0,3.0,43.0,0.0,manha,tarde,1,1,0,0,9.0
Eco Mercato,ChIJr2T_gk5YzpQRdN72k-XSuYg,4.2,378.0,5,restaurant,Centro,"Av. Ipiranga, 200 - 58/59 - República, São Paulo - SP, 01046-010, Brazil",-23.546482,-46.6442783,Open ⋅ Closes 5 PM,,https://lh5.googleusercontent.com/p/AF1QipMXETA-M8ZckbXOr2zFrDnmhFtNcXBFs40rsm6A=w80-h106-k-no,0,1,1,1,1,1,1,10.75,18.833333333333332,100.0,66.7,0.0,19.0,99.0,0.0,manha,tarde,1,1,0,0,1.0
